Unnamed: 0,Address,pincode,Taluk,Districtname,statename,Latitude,Longitude,Cluster
0,"19, 2nd St, Balamurugan Nagar, Anna Nagar Extension, Velachery, Chennai, Tamil Nadu 600042, India",600042,Chennai City Corporation,Chennai,TAMIL NADU,0.2007725933783708,0.2751529578769452,0
1,"WJMW+7F7, Chandanathope, Mamoodu, Kerala 14, India",686012,Kottayam,Kottayam,KERALA,-0.31794317304059694,0.04300024107956015,0
2,"48W5+XQ9, Velampalayam, A.Thirumuruganpoondi, Tamil Nadu 641652, India",641652,Tiruppur,Coimbatore,TAMIL NADU,-0.07730412151106443,0.09302365013527163,0
3,"98WW+WWQ, Valanjavazhy, Ambalapuzha, Kerala 688005, India",688005,Ambalappuzha,Alappuzha,KERALA,-0.33924759409530736,0.03222472013754511,0
5,"48F6+985, MGR Nagar, Sirupooluvapatti, Tiruppur, Tamil Nadu 641687, India",641687,Tiruppur,Coimbatore,TAMIL NADU,-0.08362925877539708,0.09273776390048397,0
7,"1/126-E, near Pollachi, Devanurpudur, Tamil Nadu 642207, India",642207,Udaamalpet,Coimbatore,TAMIL NADU,-0.16735233638849917,0.07906456706863552,0
10,"Ho, Sipcot Industrial Growth Centre, Plot No-C2, near Water Tank, Perundurai, Tamil Nadu 638052, India",638052,Erode,Erode,TAMIL NADU,-0.05593593641058474,0.1104103755608965,0
12,"11/1, Periyar Nagar, West, Karur, Tamil Nadu 639002, India",639002,Aravakurichi,Karur,TAMIL NADU,-0.1044441562855393,0.14041054414539203,0
14,"5, Singaravelu St, T. Nagar, Chennai, Tamil Nadu 600017, India",600017,Chennai,Chennai,TAMIL NADU,0.21041963963745744,0.2774766191938923,0
15,"MINI INDUSTRIAL ESTATE, PLOT NO .5, near POLICE STATION, Manarcadu, Kerala 686019, India",686019,Kottayam,Kottayam,KERALA,-0.3112945840509392,0.04678982556642787,0
16,"Chorode Panchayath, Chorode, Vatakara, Kerala 673104, India",673104,Vadakara,Kozhikode,KERALA,-0.007089069426691905,-0.014853293664011419,0
17,"Kochangadi, Chullickal, Kochi, Kerala 682002, India",682002,Kochi,Ernakulam,KERALA,-0.25614113630356034,0.026054744348465164,0
18,"Shop No.424, Thadagam Main Rd, Near Milk Society Bus Stop, Near Milk Company, R.S. Puram, Coimbatore, Tamil Nadu 641002, India",641002,Coimbatore South,Coimbatore,TAMIL NADU,-0.09687348809554108,0.07009170074035175,0
19,"No.9/76F, South Neervakuzhi, Kanyakumari, Palappallam, Tamil Nadu 629159, India",629159,Kalkulam,Kanyakumari,TAMIL NADU,-0.5241008003889517,0.08895014118305325,0
20,"19/2084-E, Nambiapuram Rd, Palluruthy, Kochi, Kerala 682006, India",682006,Kochi,Ernakulam,KERALA,-0.2621298749486079,0.027270123055403418,0
21,"Accelerated Freeze Drying Co. Ltd. (AFDC, R7CX+HQ6 P.O, Eramallur Ezhupunna Rd, Eramalloor, Ezhupunna, Kerala 688537, India",688537,Cherthala,Alappuzha,KERALA,-0.27663598185551336,0.029289113531195697,0
22,"Binanipuram, Edayar, Kochi, Kerala 683502, India",683502,Paravur,Ernakulam,KERALA,-0.23641633448699914,0.029278565026179863,0
23,"Mangalam, Tamil Nadu 641663, India",641663,Palladam,Coimbatore,TAMIL NADU,-0.08373086952414788,0.08994949002508011,0
25,"40, South St, Pethi Chetti Puram, Rayapuram, Tiruppur, Tamil Nadu 641601, India",641601,Avanashi,Coimbatore,TAMIL NADU,-0.08393361719730406,0.09076472216728873,0
27,"Near Pampady Gramapanchayth, NH- 220, Pampady Road, Pampady, Kottayam, Pampady, Kerala 686502, India",686502,Kottayam,Kottayam,KERALA,-0.3129447236595652,0.050239232088985813,0
28,"No: 1/H, Avinashi - Tiruppur Rd, near BBC Petrol Pump, Thaneerpanthal, Anupparpalayam Pudur, Tiruppur, A.Thirumuruganpoondi, Tamil Nadu 641652, India",641652,Tiruppur,Coimbatore,TAMIL NADU,-0.07730412151106443,0.09302365013527163,0
29,"114 A, Senthottam, Sowri Palayam, Coimbatore, Tamil Nadu 641028, India",641028,Coimbatore South,Coimbatore,TAMIL NADU,6.598816853167906,-0.8455986012226617,1
30,"Agappe Hills, Pattimattom PO, Kochi, Kerala 683562, India",683562,Aluva,Ernakulam,KERALA,-0.24451083455087305,0.03710693904573251,0
31,"No 4/571, Palladam Rd, Veerapandi, Tiruppur, Tamil Nadu 641605, India",641605,Kangayam,Erode,TAMIL NADU,-0.08019659230891528,0.09435305136593018,0
35,"60, Avinashi - Tiruppur Rd, Kumar Nagar, Park Avenue, Tiruppur, Tamil Nadu 641603, India",641603,Tiruppur,Coimbatore,TAMIL NADU,-0.0779661700573292,0.0947980283924137,0
36,"VCMC+GH, Veppampatti, Tamil Nadu 625534, India",625534,Bodinayakanur,Theni,TAMIL NADU,-0.2550527717972257,0.10264985048319296,0
39,"Shed No. 30, Netaji Apparel Park New, Tiruppur, Tamil Nadu 641666, India",641666,Tirupur,Coimbatore,TAMIL NADU,-0.06856140344899497,0.09621509293800827,0
41,"Akanadu, Mudakuzha P.O, Kurichilakodu, Akanad, Kochi, Vengoor West, Kerala 683546, India",683546,Kunnathunad,Ernakulam,KERALA,-0.22807435276496843,0.04332495456802272,0
42,"2/140, Kovil Street, Mangalam Rd, S R Nagar, Tiruppur, Tamil Nadu 641687, India",641687,Tiruppur,Coimbatore,TAMIL NADU,-0.08362925877539708,0.09273776390048397,0
44,"SF No. 12/3,4,5 - 13/1 - 21/1 , Sasthiri Nagar, Erangattur, Mettupalayam, Sathyamangalam - Mettupalayam Main Rd, South Rangasamuthram, Sathyamangalam, Tamil Nadu 638402, India",638402,Sathyamangalam,Erode,TAMIL NADU,-0.026308780118122554,0.08778718808527025,0
47,"5R6W+2FJ, Kashayapadi, Kozhikode, Feroke, Kerala 673631, India",673631,Kozhikode,Kozhikode,KERALA,-0.07187826099861297,4.695357029556043e-05,0
48,"Mookkannoor Ezhattumugham Rd, Mookkannoor, Kerala 683577, India",683577,Aluva,Ernakulam,KERALA,-0.21391888074759216,0.03628380162784403,0
49,"X746+P3V, Jew Town Rd, Jew Town, Kappalandimukku, Mattancherry, Kochi, Kerala 682002, India",682002,Kochi,Ernakulam,KERALA,-0.25614113630356034,0.026054744348465164,0
50,"P838+CP5, Kottaram Jn. Rd, Kadakkarappally, Kerala 688529, India",688529,Cherthala,Alappuzha,KERALA,-0.29428413617280125,0.029569412685238005,0
51,"P.O, Kommady, Thumpoly, Alappuzha, Aryad South, Kerala 688008, India",688008,Ambalapuzha,Alappuzha,KERALA,-0.32204055058491565,0.03050098478937685,0
52,"Alappuzha, Kerala, India",682002,Kochi,Ernakulam,KERALA,-0.25614113630356034,0.026054744348465164,0
53,"Alappuzha, Kerala, India",688534,Cherthla,Alappuzha,KERALA,-0.2690744020321457,0.02923576043838081,0
54,"Puthoor, Kerala 691507, India",691507,Kottarakkara,Kollam,KERALA,-0.3943742445605489,0.05524061732636607,0
56,"SF.No:105,Valayankadu,P.Vadugapalayam Post, Palladam-Dharapuram Rd, Palladam, Tamil Nadu 641664, India",641664,Palladam,Coimbatore,TAMIL NADU,-0.1002607462152115,0.09096715147773823,0
58,"15, Valluvar St, Sivananda Colony, Tatabad, Coimbatore, Tamil Nadu 641012, India",641012,Coimbatore South,Coimbatore,TAMIL NADU,-0.09533447323160119,0.07082608911133238,0
59,"W8GX+FX8 Moopanpara, Valapattanam, Kerala 670011, India",670011,Kannur,Kannur,KERALA,0.039424163732846164,-0.030406078596054525,0
60,"Thudiyalur Rd, near Indian Oil Petrol Bunk, Saravanampatti, Coimbatore, Tamil Nadu 641006, India",641006,Coimbatore North,Coimbatore,TAMIL NADU,-0.08946757005052551,0.07310220405569533,0
61,"Edappally Raghavan Pillai Road, Junction, Perandoor, Elamakkara, Kochi, Kerala 682026, India",682026,Ernakulam,Ernakulam,KERALA,-0.24722556126617862,0.0282526518164066,0
62,"MLA Rd, Poochakkal, Cherthala, Panavally, Kerala 688526, India",688526,Cherthala,Alappuzha,KERALA,-0.2789984024489413,0.03227096888548785,0
63,"Anchuthengu, Kerala, India",686012,Kottayam,Kottayam,KERALA,-0.31794317304059694,0.04300024107956015,0
64,"2QHX+CR5, Thalavoor, Kerala 691560, India",691560,Kottarakara,Kollam,KERALA,-0.3942766987417406,0.05933497679211169,0
66,"VIP Nagar Pandian Nagar East Tiruppur, PN Rd, Mummoorthi Nagar, Tiruppur, Tamil Nadu 641602, India",641602,Tiruppur,Coimbatore,TAMIL NADU,-0.08014266626996422,0.09487462694016671,0
67,"Parambithara Rd, Panampilly Nagar, Kochi, Kerala 682036, India",682036,Ernakulam,Ernakulam,KERALA,-0.2557290508259916,0.028641943157637215,0
68,"No. 3, Athimarathottam, Sirupooluvapatti, Tiruppur, Tamil Nadu 641603, India",641603,Tiruppur,Coimbatore,TAMIL NADU,-0.0779661700573292,0.0947980283924137,0
69,"Garmenting Division Unit-IINO.932 Dharapuram RoadVattamalai, PO, A.P, Pudur, Kangeyam, Tamil Nadu 638701, India",638701,Kangayam,Erode,TAMIL NADU,-0.09710991894052268,0.10831787122256414,0
72,"Vengamedu, Poyampalayam, Chettipalayam, Tiruppur, Tamil Nadu 641602, India",641602,Tiruppur,Coimbatore,TAMIL NADU,-0.08014266626996422,0.09487462694016671,0
73,"V872+GG9, Keltron Rd, Aroor gram panchayat, Kochi, Kerala 688534, India",688534,Cherthla,Alappuzha,KERALA,-0.2690744020321457,0.02923576043838081,0
74,"22/1177, Aroor - Thoppumpady Rd, N.H. 47, Edakochi, Kochi, Kerala 682010, India",682010,Kochi,Ernakulam,KERALA,-0.26317099081225603,0.028363719284719216,0
75,"Arani, Tamil Nadu, India",682024,Ernakulam,Ernakulam,KERALA,-0.2468210517406997,0.029118876559649207,0
76,"4, Thiruthangal Rd, Thiruthangal, Sivakasi, Tamil Nadu 626123, India",626123,Sivakasi,Virudhunagar,TAMIL NADU,-0.33512951754595627,0.12307498984365507,0
77,"Thattaveli Palam, Velloor, Kerala 686605, India",686605,Vaikom,Kottayam,KERALA,-0.28053831512225264,0.03785213980807452,0
78,"S.F.no 56, Dhanas industrial complex Kasipalayam, Main Rd, Kallangadu, Nallur, Tiruppur, Tamil Nadu 641606, India",641606,Tiruppur,Coimbatore,TAMIL NADU,-0.08212370397089003,0.09840070014290796,0
80,"61-C, Saminathapuram 2nd street, Anupparpalayam, Velampalayam, Tiruppur, Tamil Nadu 641652, India",641652,Tiruppur,Coimbatore,TAMIL NADU,-0.07730412151106443,0.09302365013527163,0
81,"458X+7CV, Olavara - Payyanur Rd, Thrikaripur, Kerala 670307, India",670307,Taliparamba,Kannur,KERALA,0.07260248431404841,-0.03895987837625481,0
83,"8/823, Vigneshwara Nagar, Pooluvapatti, Tiruppur, Tamil Nadu 641603, India",641603,Tiruppur,Coimbatore,TAMIL NADU,-0.0779661700573292,0.0947980283924137,0
84,"Road, Aroor gram panchayat, Kochi, Kerala 688534, India",688534,Cherthla,Alappuzha,KERALA,-0.2690744020321457,0.02923576043838081,0
85,"Plot No. 39-B, CSEZ, Kakkanad, Kochi, Kakkanad, Kerala 682037, India",682037,Ernakulam,Ernakulam,KERALA,-0.25007273581230993,0.03153105642851377,0
86,"14, Mannar St, T. Nagar, Chennai, Tamil Nadu 600017, India",600017,Chennai,Chennai,TAMIL NADU,0.21041963963745744,0.2774766191938923,0
87,"48Q6+8WF, Velampalayam, Tiruppur, A.Thirumuruganpoondi, Tamil Nadu 641652, India",641652,Tiruppur,Coimbatore,TAMIL NADU,-0.07730412151106443,0.09302365013527163,0
88,"Mukkam - Thiruvambady Rd, Agastiamuzhi, Mukkam, Thondimmal, Kerala 673582, India",673582,Kozhikode,Kozhikode,KERALA,-0.043376984953511506,0.007515858852855696,0
89,"XIII/831, Vikas Rd, Karuvelipady, Thoppumpady, Kochi, Kerala 682005, India",682005,Kochi,Ernakulam,KERALA,-0.25871221382985365,0.026407141650799958,0
90,"3A, Mariamman Koil St, Panruti, Thorapadi, Tamil Nadu 607106, India",607106,Panruti,Cuddalore,TAMIL NADU,0.016493789390046313,0.23425927361781723,0
91,"14B,PUTHUTHOTTAM, SBI Colony, NARAYANASWAMY NAGAR, Gandhinagar, Velampalayam, Tiruppur, Tamil Nadu 641603, India",641603,Tiruppur,Coimbatore,TAMIL NADU,-0.0779661700573292,0.0947980283924137,0
92,"10/588E, Acc house mullai nagar Extn, Ganapathipalayam Rd, Chinnakarai, Tiruppur, Tamil Nadu 641605, India",641605,Kangayam,Erode,TAMIL NADU,-0.08019659230891528,0.09435305136593018,0
96,"Industrial development plot, Punnapra North, Alappuzha, Kerala 688003, India",688003,Ambalapuzha,Alappuzha,KERALA,-0.33003957025653347,0.03137628056448957,0
97,"V2P6+G5W, Thalapatti, Tamil Nadu 639003, India",639003,Karur,Karur,TAMIL NADU,-0.10796257293212261,0.13887145594492306,0
98,"Atlas House Kunnathurmedu, Menna Nagar Colony, Kalmandapam, Palakkad, Kerala 678013, India",678013,Palakkad,Palakkad,KERALA,-0.13370852141074396,0.05194618223044272,0
99,"2nd Street, No. 34-A, PN Rd, Kamaraj Nagar, Tiruppur, Tamil Nadu 641602, India",641602,Tiruppur,Coimbatore,TAMIL NADU,-0.08014266626996422,0.09487462694016671,0
100,"WGJW+H82, Neendakara - Chinnakkada Rd, Sakthikulangara North, Kollam, Kerala 691581, India",691581,Kollam,Kollam,KERALA,-0.41175142223292144,0.044546262698131896,0
101,"T2,Bharat city arcade, Vathukara St, Annamalai Nagar, Woraiyur, Tiruchirappalli, Tamil Nadu 620003, India",620003,Tiruchirappalli,Tiruchirappalli,TAMIL NADU,-0.12882802614295175,0.17949801599990697,0
102,"2M96+9MP, Moonnumukku - Uppoodu Road, Mathilakom, Kizhakkekallada, Kerala 691502, India",691502,Kollam,Kollam,KERALA,-0.3996286241105183,0.05144671079927484,0
103,"Velichappat, 3/217 B, Poickattussery, Chengamanad PO Ernakulam District Nedumbassery kurumaseri Road 589P+397, Aluva - Mala Rd, Kerala 683578, Aluva, Kerala 683585, India",683578,Paravur,Ernakulam,KERALA,-0.22620814928591063,0.029409509254853222,0
104,"126, Nelson Manickam Rd, Collectorate Colony, Aminjikarai, Chennai, Tamil Nadu 600094, India",600094,Chennai,Chennai,TAMIL NADU,0.21353873072966376,0.2768034175791878,0
105,"IX/45-N INDUSTRIAL DEVELOPMENT PLOT, Poovanthuruthu, Kerala 686012, India",686012,Kottayam,Kottayam,KERALA,-0.31794317304059694,0.04300024107956015,0
106,"5V2R+RX3, Kakkanchery, Chelambra, Kerala 673636, India",673636,Tirurangadi,Malappuram,KERALA,-0.08054123324055319,0.003186181200950566,0
107,"Pathirappally Omanappuzha Road, Pattukalam, Alappuzha, Kerala 688522, India",688522,Ambalapuzha,Alappuzha,KERALA,-0.31437420331411725,0.030342363854114252,0
109,"3B, Kamban Street, 1st St N, Ramakrishnapuram, Saravanampatti, Siranandha Puram, Coimbatore, Tamil Nadu 641035, India",641035,Coimbatore North,Coimbatore,TAMIL NADU,-0.08708029447642296,0.07318055170947706,0
111,"Plot No. C-77-A2, C-77B1, Sipcot Industrial Comlex, Madathur, Udumalapetai, Madathur, Thoothukudi, Tamil Nadu 628008, India",628008,Thoothukkudi,Tuticorin,TAMIL NADU,-0.41579810638072695,0.1436202034987684,0
113,"Thoppumpady, W7M8+59J, Thoppumpady, Kochi, Kerala 682005, India",682005,Kochi,Ernakulam,KERALA,-0.25871221382985365,0.026407141650799958,0
114,"V798+RQR, puthenthode, Kannamaly, Kochi, Kerala 682008, India",682008,Kochi,Ernakulam,KERALA,-0.26939676173327376,0.026808933936929142,0
115,"5, Angeripalayam Main Road, Jeeva Colony, Gandhi Nagar (PO), SBI Colony, Gandhinagar, Velampalayam, Titupur, Tiruppur, Tamil Nadu 641603, India",641603,Tiruppur,Coimbatore,TAMIL NADU,-0.0779661700573292,0.0947980283924137,0
116,"D-47&48, Municipal Shopping Complex, AM Rd, Perumbavoor, Kerala 683542, India",683542,Kunnathunad,Ernakulam,KERALA,-0.2322963536884288,0.04020674823769617,0
117,"1/93, Mylampatti Post, near, Chinnampalayam, Coimbatore, Mylampatti, Tamil Nadu 641062, India",641062,Coimbatore South,Coimbatore,TAMIL NADU,-0.08889537027391503,0.07787555705977878,0
118,"2XHP+FRH, Avarampalayam, Illango Nagar, Coimbatore, Tamil Nadu 641006, India",641006,Coimbatore North,Coimbatore,TAMIL NADU,-0.08946757005052551,0.07310220405569533,0
119,"Room no.477-C, Gandhinagar West Kechery, Thalakottukara ,India.pin-680501, Kechery, Thalakottukara, Kerala 680501, India",680501,Talappilly,Thrissur,KERALA,-0.15440201078800073,0.01763117112967959,0
121,"29Q2+WHJ, Edappally - Pukkattupady Rd, Kollamkudimugal, Kangarappady, Kochi, Kerala 682021, India",682021,Ernakulam,Ernakulam,KERALA,-0.24525650410589223,0.03118870365286268,0
123,"2947+MW7, Infopark Campus, Infopark, Kakkanad, Kerala 682030, India",682030,Ernakulam,Ernakulam,KERALA,5.970555054842549,3.6117973957161227,1
124,"Amarjothi Gardens, Railway Feeder Road, 485V+46W, Railway Feeder Road, Kannipiran Colony, Valipalayam, Tiruppur, Tamil Nadu 641601, India",641601,Avanashi,Coimbatore,TAMIL NADU,-0.08393361719730406,0.09076472216728873,0
126,"Pallichal Rd, Valummel, Kochi, Kerala 682005, India",682005,Kochi,Ernakulam,KERALA,-0.25871221382985365,0.026407141650799958,0
128,"pariyur amman nagar, Nochipalayam, Tiruppur, Tamil Nadu 641605, India",641605,Kangayam,Erode,TAMIL NADU,-0.08019659230891528,0.09435305136593018,0
132,"Thiruvegappura, Pattambi, Thiruvegappura, Kerala 679304, India",679304,Ottappalam,Palakkad,KERALA,-0.11740269202132797,0.017752547085050967,0
133,"Ambalathinkara, Kerala 671531, India",671531,Hosdurg,Kasargod,KERALA,0.10653656843187831,-0.044035362065068216,0
134,"Mavady Post, Enathu Puthoor Rd, Kerala 691507, India",691507,Kottarakkara,Kollam,KERALA,-0.3943742445605489,0.05524061732636607,0
136,"Glenmary Estate, Peerumade (PO), HXGG+78G, Peermade, Idukki, Kuttikkanam, Kerala 685531, India",685531,Peerumade,Idukki,KERALA,-0.31374939153460923,0.07303667442261633,0
138,"Kollam Kerala, Kerala 691507, India",691507,Kottarakkara,Kollam,KERALA,-0.3943742445605489,0.05524061732636607,0
140,"55, GNG St, Varadaraja Puram, Ambattur, Chennai, Tamil Nadu 600053, India",600053,Ambattur,Tiruvallur,TAMIL NADU,0.22145747840689992,0.2723773175183806,0
141,"No. 40, 5th Cross, Bharathi Park Rd, Periyar Nagar, Anna Nagar, Coimbatore, Tamil Nadu 641043, India",641043,Coimbatore North,Coimbatore,TAMIL NADU,-0.09453927792719191,0.06986565187723873,0
142,"9HR7+5RM, Thiruvalla, Kerala 689101, India",689101,Tiruvalla,Pathanamthitta,KERALA,-0.34152461661864125,0.045998917806522065,0
144,"Oottara, Kollengode, JPH2+7X8, Panangattiri, Kerala 678504, India",678504,Chittur,Palakkad,KERALA,-0.15290843562519482,0.05391022114241671,0
145,"20, Kongu Main Rd, SNVS Layout, Muthu Nagar, Renganatha Puram, Tiruppur, Tamil Nadu 641607, India",641607,Tirupur,Coimbatore,TAMIL NADU,-0.08008612570753879,0.09593310959954607,0
148,"57PJ+26C, SH19, Kaikattipudhur, Avinashi, Tamil Nadu 641654, India",641654,,Coimbatore,TAMIL NADU,-0.07211273658542343,0.08790698463255031,0
151,"Sengeni Ammal St, Panruti, Tamil Nadu 607106, India",607106,Panruti,Cuddalore,TAMIL NADU,0.016493789390046313,0.23425927361781723,0
152,"EEC Market, Market P.O, Vazhappily, Muvattupuzha, Kerala 686673, India",686673,Muvattupuzha,Ernakulam,KERALA,-0.25182026033814353,0.04670736603110465,0
153,"HMD BUILDING, 18/1640, Karicode, Koikkal, Kollam, Kerala 691004, India",691004,Kollam,Kollam,KERALA,-0.41541031842855414,0.04929553614511695,0
154,"48/2510D4, 2nd Floor, Blastline Corporate Chamber,Pottakuzhi Elamakkakara (PO, Perandoor Rd, Mamangalam, Kaloor, Ernakulam, Kochi, Kerala 682026, India",682026,Ernakulam,Ernakulam,KERALA,-0.24722556126617862,0.0282526518164066,0
155,"682 F, Mundur, Thrissur, Kerala 680541, India",680541,Thrissur,Thrissur,KERALA,-0.6750969324402089,-9.39344608778133,2
156,"1058, Munusamy Salai, KK Nagar West, K. K. Nagar, Chennai, Tamil Nadu 600078, India",600078,Chennai City Corporation,Chennai,TAMIL NADU,0.21006239841378974,0.2752673589925324,0
157,"SIDCO, Tamil Nadu 641606, India",641606,Tiruppur,Coimbatore,TAMIL NADU,-0.08212370397089003,0.09840070014290796,0
159,"14/486, East, Pandikudy, Chullickal, Kochi, Kerala 682001, India",682001,Kochi,Ernakulam,KERALA,-0.2554273329516263,0.02538177500566223,0
160,"48FH+P3M, Asher Nagar 60 Feet Rd, Valayankadu South, Tiruppur, Tamil Nadu 641603, India",641603,Tiruppur,Coimbatore,TAMIL NADU,-0.0779661700573292,0.0947980283924137,0
161,"lakshmi, Ganesh Nagar 3rd St, Lakshmi Nagar, Koundampalayam, Coimbatore, Tamil Nadu 641030, India",641030,Coimbatore North,Coimbatore,TAMIL NADU,-0.09266350491701184,0.06984812873369424,0
162,"47/1, Periyar St, Erode, Tamil Nadu 638003, India",638003,Erode,Erode,TAMIL NADU,-0.04579418657045125,0.11926399705895435,0
163,"J9C6+WCC, Kayippuram, Muhamma, Kerala 688525, India",688525,Cherthala,Alappuzha,KERALA,-0.3072381939469009,0.03267525151209178,0
164,"P9V4+QVH, Pallipuram, Kerala 688541, India",688541,Cherthala,Alappuzha,KERALA,-0.2886268062747816,0.032870670044857116,0
165,"56, S Car St, Teppam South Bazar, Anna Nagar, Virudhunagar, Tamil Nadu 626001, India",626001,Virudhunagar,Virudhunagar,TAMIL NADU,-0.3115863321809122,0.1337896113476792,0
167,"330/1, Sri Gokula Krishna Nagar Tkt Mills, Palladam Road, Tiruppur - Palladam Rd, AB Nagar, Tiruppur, Tamil Nadu 641605, India",641605,Kangayam,Erode,TAMIL NADU,-0.08019659230891528,0.09435305136593018,0
171,"XI /799, VIJAYAPURAM, Vadavathoor, Kottayam, Kerala 686010, India",686010,Kottayam,Kottayam,KERALA,-0.31157480494191203,0.045664872862616626,0
172,"42, Karumarampalayam Rd, Karumarpalayam, Mannarai, Tiruppur, Tamil Nadu 641607, India",641607,Tirupur,Coimbatore,TAMIL NADU,-0.08008612570753879,0.09593310959954607,0
175,"28/4, Millers Rd, Kilpauk, Chennai, Tamil Nadu 600010, India",600010,Perambur Purasawalkam,Chennai,TAMIL NADU,0.2162359077322548,0.277673504752904,0
176,"3/176, SS no - 419/5D, Maniyavi Thottam West Arasur, SulurTaluk, Amman Nagar, Coimbatore, Tamil Nadu 641407, India",641407,Palladam,Coimbatore,TAMIL NADU,-0.08683811758877541,0.08202655995289834,0
177,"103, Street, Kozhipannai, Andipalayam, Tiruppur, Tamil Nadu 641687, India",641687,Tiruppur,Coimbatore,TAMIL NADU,-0.08362925877539708,0.09273776390048397,0
179,"V9FW+8MW, Elayavoor, Kerala 670005, India",670005,Kannur,Kannur,KERALA,0.035476781627924114,-0.02845269530162535,0
180,"Manuelsons, Complex, GH Rd, Mananchira, Kozhikode, Kerala 673001, India",673001,Kozhikode,Kozhikode,KERALA,-0.06051774801487859,-0.0038197113639194683,0
181,"G65M+4WR, Caico Rd, Maveli Nagar, Unity Nagar, Kuriachira, Thrissur, Kerala 680006, India",680006,,Thrissur,KERALA,-0.6855548633083653,-9.409380482352349,2
182,"5C6J+J64, Kavandampalayam, Tamil Nadu 638752, India",638752,Erode,Erode,TAMIL NADU,-0.07564001512523506,0.1007564283614068,0
184,"1,Bridgeway Colony, Extention North, Bridge Way Colony Extension, Tiruppur, Tamil Nadu 641607, India",641607,Tirupur,Coimbatore,TAMIL NADU,-0.08008612570753879,0.09593310959954607,0
187,"P.B. No.2, Koovappady P.O, Akanad, Kerala 683544, India",683544,Kunnathunad,Ernakulam,KERALA,-0.22447293381954092,0.04208052471655556,0
188,"Coir park 1 Thiruvizha North Road, Post, Mayithara, Cherthala South, Kerala 688539, India",688539,Cherthala,Alappuzha,KERALA,-0.300444571128542,0.031561943775552485,0
189,"Broadway, Church St, Marine Drive, Ernakulam, Kochi, Kerala 682031, India",682031,Ernakulam,Ernakulam,KERALA,-0.2501424736501998,0.027359932141625777,0
190,"No.11, M. R. Nagar, Dharapuram Main Rd, MR Nagar, K N P Colony, Tiruppur, Tamil Nadu 641604, India",641604,Tiruppur,Coimbatore,TAMIL NADU,-0.0839111833056176,0.09527016921397699,0
192,"Ponpuzha, Ithithanam Post, Changanacherry Near Saintgits college, Pathamuttom, Kottayam, Ithithanam, Kerala 686535, India",686535,Changanassery,Kottayam,KERALA,-0.32837098630509526,0.04323934760371749,0
193,"582M+VXG, Vengamedu, Mangulam, Tiruppur, Tamil Nadu 641603, India",641603,Tiruppur,Coimbatore,TAMIL NADU,-0.0779661700573292,0.0947980283924137,0
194,"Naruvamoodu, Pallichal, Kerala 695507, India",695507,Neyyattinkara,Thiruvananthapuram,KERALA,-0.48281209439057243,0.07676365100909174,0
195,"2PCC+JGV, Thevalapuram, Neduvathoor, Kerala 691507, India",691507,Kottarakkara,Kollam,KERALA,-0.3943742445605489,0.05524061732636607,0
197,"AS Road, J84M+GF5, Kanjikuzhy, Shertallay, Kerala 688524, India",688524,Cherthala,Alappuzha,KERALA,-0.2966915384962999,0.031033713294672704,0
198,"WGPV+RXG, Neendakara, Kollam, Kerala 691582, India",691582,Karunagapally,Kollam,KERALA,-0.4088317372375612,0.044076131955812066,0
200,"396M+769, Tiruppur, Tamil Nadu 641605, India",641605,Kangayam,Erode,TAMIL NADU,-0.08019659230891528,0.09435305136593018,0
204,"Chemmeens Junction,Karuvekipady, Kochi-682005, Karuvelipady, Kazhuthumuttu, Thoppumpady, Kochi, Kerala 682005, India",682005,Kochi,Ernakulam,KERALA,-0.25871221382985365,0.026407141650799958,0
205,"81, 2nd Street, New Ramakrishna Puram Mordan Bakery Street, Muthu Nagar, Renganatha Puram, Tiruppur, Tamil Nadu 641607, India",641607,Tirupur,Coimbatore,TAMIL NADU,-0.08008612570753879,0.09593310959954607,0
208,"V8C7+3QX Cherukattu Industries, Aroor gram panchayat, Kochi, Kerala 688534, India",688534,Cherthla,Alappuzha,KERALA,-0.2690744020321457,0.02923576043838081,0
209,"X6CJ+F69, Shanti Nagar, Perintalmanna, Kerala 679322, India",679322,Perinthalmanna,Malappuram,KERALA,-0.10179426437914596,0.024445763936888437,0
211,"Pitchampalayam Pudur, Tiruppur, Tamil Nadu 641603, India",641603,Tiruppur,Coimbatore,TAMIL NADU,-0.0779661700573292,0.0947980283924137,0
212,"SR Nagar, Periyandipalayam, Tiruppur, Tamil Nadu 641687, India",641687,Tiruppur,Coimbatore,TAMIL NADU,-0.08362925877539708,0.09273776390048397,0
214,"16B, CSEZ, Kakkanad, Kerala 682037, India",682037,Ernakulam,Ernakulam,KERALA,-0.25007273581230993,0.03153105642851377,0
215,"Plot. No.41, 37, CSEZ, Kakkanad, Kochi, Kakkanad, Kerala 682037, India",682037,Ernakulam,Ernakulam,KERALA,-0.25007273581230993,0.03153105642851377,0
216,"IV/833, MSP, Valavanad, Pollethai, Alappuzha, Kerala 688522, India",688522,Ambalapuzha,Alappuzha,KERALA,-0.31437420331411725,0.030342363854114252,0
218,"No. 566, Swaminathapuram Village, Vadavalli, Panchayat, Taluk, Annur, Tamil Nadu 641697, India",641697,Mettupalayam,Coimbatore,TAMIL NADU,-0.05921841763049815,0.07543292952553673,0
220,"Kochi, Kerala, India",682024,Ernakulam,Ernakulam,KERALA,-0.2468210517406997,0.029118876559649207,0
221,"Kochi, Kerala, India",682002,Kochi,Ernakulam,KERALA,-0.25614113630356034,0.026054744348465164,0
222,"Kochi, Kerala, India",688524,Cherthala,Alappuzha,KERALA,-0.2966915384962999,0.031033713294672704,0
223,"Federal Park, Vennala, Ernakulam, Kochi, Kerala 682028, India",682028,Ernakulam,Ernakulam,KERALA,-0.2501761489513093,0.030286952165516884,0
224,"Kochi, Kerala, India",688534,Cherthla,Alappuzha,KERALA,-0.2690744020321457,0.02923576043838081,0
225,"Poorna Nagar Park,, 4952+GWW, Periyar Nagar, Aluva, Kerala 683101, India",683101,Aluva,Ernakulam,KERALA,-0.23520835084433755,0.032896184356004096,0
226,"PLOT no 63, Edayar, Kerala 683502, India",683502,Paravur,Ernakulam,KERALA,-0.23641633448699914,0.029278565026179863,0
227,"20/46B, Near I.O.C Petrol Pump, Palluruthy Veli, Aroor - Thoppumpady Rd, Palluruthy, Kochi, Kerala 682006, India",682006,Kochi,Ernakulam,KERALA,-0.2621298749486079,0.027270123055403418,0
228,"G83H+F9Q, Aarattuvazhi, Kanjiramchira, Aryad South, Alappuzha, Kerala 688007, India",688007,Ambalapuzh A,Alappuzha,KERALA,-0.3237260036396253,0.03065645612502533,0
230,"Coimbatore, Tamil Nadu, India",682024,Ernakulam,Ernakulam,KERALA,-0.2468210517406997,0.029118876559649207,0
231,"Building No.X11, Pattanakkad, Cherthala, Pattanakkad, Kerala 688531, India",688531,Cherthala,Alappuzha,KERALA,-0.29116869964765785,0.029946535714587275,0
232,"Kalyan Villa, Vellakinar Rd, Vellakkinar, Alappuzha, Kerala 688001, India",688001,Ambalapuzha,Alappuzha,KERALA,-0.32583434330238176,0.030985833317479256,0
233,"TP-12/498K, Varanad PO, Cherthala, Pin: 688539, Alappuzha, Cherthala, Kerala 688524, India",688539,Cherthala,Alappuzha,KERALA,-0.300444571128542,0.031561943775552485,0
234,"J88R+699, Kanjikuzhy, Kanjikkuzhi, Kerala 688525, India",688525,Cherthala,Alappuzha,KERALA,-0.3072381939469009,0.03267525151209178,0
235,"Chingavanam, Kerala 686007, India",686007,Kottayam,Kottayam,KERALA,-0.32051600059085955,0.042541489960835684,0
236,"Coonoor, Tamil Nadu, India",682002,Kochi,Ernakulam,KERALA,-0.25614113630356034,0.026054744348465164,0
237,"514/7, Pothiyampalayam, Road, Arasur, Tamil Nadu 641407, India",641407,Palladam,Coimbatore,TAMIL NADU,-0.08683811758877541,0.08202655995289834,0
238,"No. 29, TT Krishnamachari Rd, CIT Colony, Mylapore, Chennai, Tamil Nadu 600018, India",600018,Chennai,Chennai,TAMIL NADU,0.20960557502327723,0.2787885400156821,0
239,"2a, PN Rd, Palanisamy Nagar, Vengamedu, Poyampalayam, Tiruppur, Tamil Nadu 641602, India",641602,Tiruppur,Coimbatore,TAMIL NADU,-0.08014266626996422,0.09487462694016671,0
240,"B No.10-1, Krishna Nagar, Maniyarkaranpalayam Road, Periyar Nagar, Anna Nagar, Coimbatore, Tamil Nadu 641006, India",641006,Coimbatore North,Coimbatore,TAMIL NADU,-0.08946757005052551,0.07310220405569533,0
241,"14-B, CSEZ, Kakkanad, Kerala 682037, India",682037,Ernakulam,Ernakulam,KERALA,-0.25007273581230993,0.03153105642851377,0
242,"26A, Kangayam Rd, opp. JMHS School, Kaliyappa Nagar, Cheran Nagar, Lakshmi Garden, Tiruppur, Tamil Nadu 641604, India",641604,Tiruppur,Coimbatore,TAMIL NADU,-0.0839111833056176,0.09527016921397699,0
244,"Kozhikode, Kerala, India",682024,Ernakulam,Ernakulam,KERALA,-0.2468210517406997,0.029118876559649207,0
245,"4/684 Nochipalayam Road Veerapandi Post, Palladam Rd, Tiruppur, Tamil Nadu 641605, India",641605,Kangayam,Erode,TAMIL NADU,-0.08019659230891528,0.09435305136593018,0
249,"9/22 HA IDA, Nalam Mile, ALUVA, Kerala 683112, India",683112,Kunnathunad,Ernakulam,KERALA,-0.23610657612678,0.0350361488730986,0
250,"682037, CSEZ, Kochi, Kakkanad, Kerala 682037, India",682037,Ernakulam,Ernakulam,KERALA,-0.25007273581230993,0.03153105642851377,0
251,"Valavanadu, Kalavoor P.O., Kanjikuzhy, Ward 1, Alappuzha, Kerala 688522, India",688522,Ambalapuzha,Alappuzha,KERALA,-0.31437420331411725,0.030342363854114252,0
253,"42/60, Kumar Nagar, Renganatha Puram, Tiruppur, Tamil Nadu 641602, India",641602,Tiruppur,Coimbatore,TAMIL NADU,-0.08014266626996422,0.09487462694016671,0
254,"Bridge Way Colony Extension, Tiruppur, Tamil Nadu 641602, India",641602,Tiruppur,Coimbatore,TAMIL NADU,-0.08014266626996422,0.09487462694016671,0
255,"1/37, Nochipalayam, Veerapandi, Tiruppur, Tamil Nadu 641605, India",641605,Kangayam,Erode,TAMIL NADU,-0.08019659230891528,0.09435305136593018,0
259,"2XXQ+F5F, Gopalakrishnapuram, Ganapathy, Coimbatore, Tamil Nadu 641006, India",641006,Coimbatore North,Coimbatore,TAMIL NADU,-0.08946757005052551,0.07310220405569533,0
260,"Sriperumbudur Taluk, 4/371, Vandalur - Wallajabad Road, David Nagar, Padappai, Chennai, Tamil Nadu 601301, India",601301,Sriperumbudur,Kanchipuram,TAMIL NADU,6.760202112759821,-2.1996322966835127,1
262,"SF NO.229, KARAIPUDHUR ARULPURAM, PALLADAM, RAOD, Arulpuram, Tiruppur, Tamil Nadu 641605, India",641605,Kangayam,Erode,TAMIL NADU,-0.08019659230891528,0.09435305136593018,0
266,"39/1384 Four Star Buildings Chittoor Road Valanjambalam, Ernakulam South, Kochi, Kerala 682016, India",682016,Ernakulam,Ernakulam,KERALA,-0.2549099739487917,0.028146276578148777,0
267,"Nambiapuram, Palluruthy, Kochi, Kerala 682006, India",682006,Kochi,Ernakulam,KERALA,-0.2621298749486079,0.027270123055403418,0
268,"Parakkamugal Infopark Rd, Infopark Campus, Kochi, Kakkanad, Kerala 682030, India",682030,Ernakulam,Ernakulam,KERALA,5.970555054842549,3.6117973957161227,1
269,"AKG Nagar Housing Colony, Kakkat, Kannur, Kerala 670005, India",670005,Kannur,Kannur,KERALA,0.035476781627924114,-0.02845269530162535,0
270,"3/247, Senthil Nagar, Ganapathi Palayam, Kangayam Main Road, Tamilnadu, Padiyur, Nachipalayam, Tamil Nadu 638701, India",638701,Kangayam,Erode,TAMIL NADU,-0.09710991894052268,0.10831787122256414,0
273,"30, Coral Merchant Street, Mannadi, George Town, Chennai, Tamil Nadu 600001, India",600001,,Chennai,TAMIL NADU,0.2161619863785028,0.2795254904683549,0
277,"Industrial Development Plot, Poovanthuruthu, Kottayam, Kerala 686012, India",686012,Kottayam,Kottayam,KERALA,-0.31794317304059694,0.04300024107956015,0
278,"8/24 F ANGERIPALAYAM ROAD OPP.KONGU VELLALAR SCHOOL TIRUPUR, Mahavishnu Nagar, Pitchampalayam Pudur, Tiruppur, Tamil Nadu 641603, India",641603,Tiruppur,Coimbatore,TAMIL NADU,-0.0779661700573292,0.0947980283924137,0
279,"7G3C+5GX, Thattarambalam, Mavelikara, Kannamangalam North, Kerala 690103, India",690103,Mavelikkara,Alappuzha,KERALA,-0.3629855874053968,0.042759978141991915,0
282,"1143, Mettupalayam Rd, near Murugan Mills, Nesavaalar Colony, Coimbatore, Tamil Nadu 641043, India",641043,Coimbatore North,Coimbatore,TAMIL NADU,-0.09453927792719191,0.06986565187723873,0
283,"Kurichy, Thuruthy, Kerala 686532, India",686532,Changanassery,Kottayam,KERALA,-0.3248632036573012,0.04277176851773967,0
285,"Kodikuthimala, Ashokapuram, Edathala, Aluva, Kerala 683101, India",683101,Aluva,Ernakulam,KERALA,-0.23520835084433755,0.032896184356004096,0
286,"SF.No.418,Karukkankattor pirivu,Covai main road, Perundurai, Tamil Nadu 638052, India",638052,Erode,Erode,TAMIL NADU,-0.05593593641058474,0.1104103755608965,0
288,"CCSB Rd, Civil Station Ward, Alappuzha, Kerala 688001, India",688001,Ambalapuzha,Alappuzha,KERALA,-0.32583434330238176,0.030985833317479256,0
289,"Lane 1, VRWA, near State Bank of India, Vyttila, Ernakulam, Kochi, Kerala 682019, India",682019,Ernakulam,Ernakulam,KERALA,-0.2542184084978708,0.02993215817923141,0
290,"37QR+8H7, Tiruppur, Tamil Nadu 641687, India",641687,Tiruppur,Coimbatore,TAMIL NADU,-0.08362925877539708,0.09273776390048397,0
292,"Gandhi Road, Opposite To Nataraja Sabari Garden,, D-1, Anupparpalayam Pudur, Tiruppur, A.Thirumuruganpoondi, Tamil Nadu 641652, India",641652,Tiruppur,Coimbatore,TAMIL NADU,-0.07730412151106443,0.09302365013527163,0
293,"M567+639, Meenangadi, Kerala 673591, India",673591,Sulthanbathery,Wayanad,KERALA,0.0027835256573284523,0.020290007845939734,0
296,"7/808, Court Rd, Near Central Fish Market, Mananchira, Kozhikode, Kerala 673001, India",673001,Kozhikode,Kozhikode,KERALA,-0.06051774801487859,-0.0038197113639194683,0
297,"WRP4+F59, Konnathu Mukku - Mathayi Mukku Rd, Chepra, Kerala 691520, India",691520,Kottarakkara,Kollam,KERALA,-0.4087750844698234,0.06023819664290518,0
299,"Nh 47 Main Road, SS Nagar, Tiruppur, Tamil Nadu 641666, India",641666,Tirupur,Coimbatore,TAMIL NADU,-0.06856140344899497,0.09621509293800827,0
301,"SDF 16A, IVth Floor, CSEZ, Kakkanad, Kochi, Kakkanad, Kerala 682037, India",682037,Ernakulam,Ernakulam,KERALA,-0.25007273581230993,0.03153105642851377,0
302,"Spices Hill, Vallicode, Pathanamthitta, Kottayam, Vallicode Kottayam, Kerala 689656, India",689656,Kozhenchery,Pathanamthitta,KERALA,-0.36872886169467367,0.06115862524857047,0
303,"No.2, to Muthanampalayam Road, Muthanampalayam (Post),, Nallur, Tiruppur, Tamil Nadu 641606, India",641606,Tiruppur,Coimbatore,TAMIL NADU,-0.08212370397089003,0.09840070014290796,0
305,"423 A South vellarapilly, po, Kochi, Thekkumbhagom, Kerala 683580, India",683580,Aluva,Ernakulam,KERALA,-0.22860893829712708,0.03577662087321038,0
306,"9FXW+32J, Dhalavaipuram, Tamil Nadu 626188, India",626188,Rajapalayam,Virudhunagar,TAMIL NADU,-0.341311568407245,0.10458408295223783,0
307,"WHH6+WJW, Kavanad, Sakthikulangara North, Kollam, Kerala 691003, India",691003,Kollam,Kollam,KERALA,-0.413610955785963,0.04514583030674012,0
308,"No:7, MS Nagar 2nd Street, Asirwatham Stores, Kondu Main Road, Appachi Nagar, Kongu Nagar, Tiruppur, Tamil Nadu 641607, India",641607,Tirupur,Coimbatore,TAMIL NADU,-0.08008612570753879,0.09593310959954607,0
311,"Kangayam Rd, Rajiv Nagar, Bavani Nagar, Tiruppur, Tamil Nadu 641602, India",641602,Tiruppur,Coimbatore,TAMIL NADU,-0.08014266626996422,0.09487462694016671,0
312,"10, Pushpa Nagr, Kangayam Cross Road, Kannipiran Colony, Binny Compound, Tiruppur, Tamil Nadu 641604, India",641604,Tiruppur,Coimbatore,TAMIL NADU,-0.0839111833056176,0.09527016921397699,0
314,"C100, 1'ST AVENUE, Chintamani, C Block, Annanagar East, Chennai, Tamil Nadu 600102, India",600102,Perambur Purasawalkam,Chennai,TAMIL NADU,0.21714196477026415,0.27671395279462846,0
315,"Xix/318 Kanjirakkadu, Rayonpuram P.O, Perumbavoor Kochi- 683543, Kerala, Ernakulam, Perumbavoor, Kerala 683543, India",683543,Kunnathunad,Ernakulam,KERALA,-0.23109838353867837,0.04055461189433655,0
316,"Willingdon Island, Kochi, Kerala 682003, India",682003,Kochi,Ernakulam,KERALA,-0.25565834761602635,0.027122963581373387,0
317,"519, Athipalayam Rd, Sreevatsa Global Village, Chinnavedampatti, Coimbatore, Tamil Nadu 641049, India",641049,Coimbatore North,Coimbatore,TAMIL NADU,-0.08748493606679492,0.07198517234360079,0
318,"Excel Tower, 7/138 B, Puranattukara, Kerala 680551, India",680551,Thrissur,Thrissur,KERALA,-0.6608343937058879,-9.399162501861873,2
320,"Near KSEB, 68/1637A, Mariakutty John Rd, near Power House Road, Power House Junction, Kacheripady, Kochi, Kerala 682018, India",682018,Ernakulam,Ernakulam,KERALA,-0.2509480369919714,0.02777955966865834,0
321,"No-1, L I C Colony, 1st Street, College Road, College Road, Odakkadu, Tiruppur, Tamil Nadu 641602, India",641602,Tiruppur,Coimbatore,TAMIL NADU,-0.08014266626996422,0.09487462694016671,0
322,"Room No:40/5476, First Floor,Ruquia Chamber, TD Rd, Padma Junction, Pullepady, Kochi, Kerala 682035, India",682035,Ernakulam,Ernakulam,KERALA,-0.25281006148834895,0.02786718133854806,0
323,"48H4+2W8, Thiruvanakudi Nagar, Sirupooluvapatti, Tiruppur, Tamil Nadu 641652, India",641652,Tiruppur,Coimbatore,TAMIL NADU,-0.07730412151106443,0.09302365013527163,0
324,"SF.No.21, Sundarapuram to Madukkarai Market Road, Madukkarai Post, Madukkarai, Tamil Nadu 641105, India",641105,Coimbatore South,Coimbatore,TAMIL NADU,-0.11156560526430767,0.07024166249616247,0
325,"SF No 343,Ramraj Nagar,80 ft road, near BPL Tower, Gandhi Nagar Post, Thiyagi Palanisamy Nagar, Velampalayam, Tiruppur, Tamil Nadu 641603, India",641603,Tiruppur,Coimbatore,TAMIL NADU,-0.0779661700573292,0.0947980283924137,0
326,"J663+5MR, Medical College Approach Rd, Thangaloor, Kerala 680581, India",680581,Thrissur,Thrissur,KERALA,-0.1626211976366976,0.024186545296559146,0
329,"Door No. XI/408, NH-66, Cheriakadavu, Kannamaly, Cheriakadavu, Kannamaly, Kochi, Kerala 682008, India",682008,Kochi,Ernakulam,KERALA,-0.26939676173327376,0.026808933936929142,0
330,"29/2089 State Highway 15 Tripunithura, Road, Thykoodam, Vyttila, Kochi, Kerala 682019, India",682019,Ernakulam,Ernakulam,KERALA,-0.2542184084978708,0.02993215817923141,0
331,"Eramalloor,, Chandiroor, Alappuzha, Kerala 688537, India",688537,Cherthala,Alappuzha,KERALA,-0.27663598185551336,0.029289113531195697,0
332,"M899+27Q Perumpara Juction, Po, Kuruppan Kulangara, Cherthala, Cherthala South, Kerala 688539, India",688539,Cherthala,Alappuzha,KERALA,-0.300444571128542,0.031561943775552485,0
333,"S.N.V. Road, Kannadikavala, Aryakara, Muhamma, Kerala 688525, India",688525,Cherthala,Alappuzha,KERALA,-0.3072381939469009,0.03267525151209178,0
334,"Canal Pirivu, Pampampallam, RR98+25C, Kanjikode, Pudussery East, Kerala 678557, India",678557,Chittur,Palakkad,KERALA,-0.12864283937456863,0.06279931359494328,0
335,"1150c, Subhash Chandra Bose Rd, Jawahar Nagar, Elamkulam, Kochi, Kerala 682020, India",682020,Ernakulam,Ernakulam,KERALA,-0.254422948962788,0.029031235400395004,0
336,"6/140, Synagogue Ln, Jew Town, Kappalandimukku, Mattancherry, Kochi, Kerala 682002, India",682002,Kochi,Ernakulam,KERALA,-0.25614113630356034,0.026054744348465164,0
337,"Press Kottadayil Building, Near North,, Lakeshore Hospital, Nettoor, Maradu, Kochi, Kerala 682040, India",682040,Kanayannur,Ernakulam,KERALA,-0.2611867184751283,0.029951592689615916,0
338,"189 Uthupalayam, Avinashi Rd, Arasur, Uthupalayam, Tamil Nadu 641407, India",641407,Palladam,Coimbatore,TAMIL NADU,-0.08683811758877541,0.08202655995289834,0
339,"487V+23V, 50 Feet Rd Lakshmi Nagar, Bridge Way Colony Extension, Tiruppur, Tamil Nadu 641602, India",641602,Tiruppur,Coimbatore,TAMIL NADU,-0.08014266626996422,0.09487462694016671,0
340,"Fluid Pumps & Equipment India Pvt Ltd 7/222, Nagamanaickenpalayam, Sakthi Nagar, Pattanam, Coimbatore, Sakthi Nagar, Tamil Nadu 641016, India",641016,Coimbatore South,Coimbatore,TAMIL NADU,-0.09932732946511445,0.07651338537310096,0
342,"beach, Civil Station Ward, Alappuzha, Kerala 688012, India",688012,Ambalapuzha,Alappuzha,KERALA,-0.3266816985733204,0.03052916594912525,0
343,"AV Building, Cherattukuzhi Road, Down Hill, Malappuram, Kerala 676519, India",676519,Ernad,Malappuram,KERALA,-0.0907879862003649,0.012421416703584497,0
345,"R8MQ+C3G, Cherthala - Arookutty Rd, Panavally, Kerala 688526, India",688526,Cherthala,Alappuzha,KERALA,-0.2789984024489413,0.03227096888548785,0
346,"Aravankara - Mini Ootty - Arimbramala Rd, Pookkottur, Kerala 676517, India",676517,Ernad,Malappuram,KERALA,-0.08607506183354616,0.014199493921022028,0
347,"1A, Pugazhum perumalpuram, 3rd street Kumarananthapuram, Vengatappa Gounder Layout, Kumarnathapuram, Tiruppur, Tamil Nadu 641602, India",641602,Tiruppur,Coimbatore,TAMIL NADU,-0.08014266626996422,0.09487462694016671,0
348,"R8C3+Q4R Between konkery bridge and Railway cross, Vattathara, Ezhupunna, Kerala 688537, India",688537,Cherthala,Alappuzha,KERALA,-0.27663598185551336,0.029289113531195697,0
349,"Sf No:14/2, Parapalayam, Mangalam Road, Mangalam Road, near Mps Theatre, Vadkuthottam, Parapalayam, Karuvampalayam, Tiruppur, Tamil Nadu 641604, India",641604,Tiruppur,Coimbatore,TAMIL NADU,-0.0839111833056176,0.09527016921397699,0
351,"GKS COMPLEX, 4/450 , AROOKUTTY FERRY ROAD , AROOR 688534, Aroor gram panchayat, Kochi, Kerala 688534, India",688534,Cherthla,Alappuzha,KERALA,-0.2690744020321457,0.02923576043838081,0
352,"48PM+X9X, Unnamed Road, Mahavishnu Nagar, Pitchampalayam Pudur, Tiruppur, Tamil Nadu 641603, India",641603,Tiruppur,Coimbatore,TAMIL NADU,-0.0779661700573292,0.0947980283924137,0
353,"X349+QM7, Anna Nagar, Karur, Tamil Nadu 639001, India",639001,Karur,Karur,TAMIL NADU,-0.10452658550065334,0.14109207602111168,0
354,"PHASE I & II, SIDCO Industrial Estate, Sipcot Ph. I, Hosur, Tamil Nadu 635126, India",635126,Hosur,Krishnagiri,TAMIL NADU,0.16654962119788141,0.12394778972468377,0
355,"52, Bharathi Nagar, 1st St, Bharathi Nagar, Raja Nagar, Ganapathy, Coimbatore, Tamil Nadu 641006, India",641006,Coimbatore North,Coimbatore,TAMIL NADU,-0.08946757005052551,0.07310220405569533,0
356,"12, Therkku Thottam Odai Rd, Karuvampalayam, Tiruppur, Tamil Nadu 641604, India",641604,Tiruppur,Coimbatore,TAMIL NADU,-0.0839111833056176,0.09527016921397699,0
358,"S F No-217/I, Gangai Gardens, Kavilipalayam Road, Sirupooluvapatti, Gandhi Nagar, Gandhi Nagar, SBI Colony, Gandhinagar, Velampalayam, Tiruppur, Tamil Nadu 641603, India",641603,Tiruppur,Coimbatore,TAMIL NADU,-0.0779661700573292,0.0947980283924137,0
359,"487C+5VP, Vivekananda Nagar, Sri Vidya Nagar, Tiruppur, Tamil Nadu 641603, India",641603,Tiruppur,Coimbatore,TAMIL NADU,-0.0779661700573292,0.0947980283924137,0
360,"2H26+HH8, Kangayam Rd, opp. Telephone exchange, Kalimedu, Tiruppur, Kangeyam, Tamil Nadu 638701, India",638701,Kangayam,Erode,TAMIL NADU,-0.09710991894052268,0.10831787122256414,0
363,"362/3A, PUDUPALAYAM Nachipalayam post Vijayapuram via, Kangayam Rd, Tiruppur, Tamil Nadu 641606, India",641606,Tiruppur,Coimbatore,TAMIL NADU,-0.08212370397089003,0.09840070014290796,0
365,"police quarters, opposite KR bakery, Agraharam, Singanallur, Coimbatore, Tamil Nadu 641005, India",641005,Coimbatore South,Coimbatore,TAMIL NADU,-0.09616999526349036,0.07403679457304589,0
366,"SF No: 490, Vellalore Road Podanur, PO, Railway Colony 20 Blocks, Coimbatore, Podanur, Tamil Nadu 641023, India",641023,Coimbatore South,Coimbatore,TAMIL NADU,6.642769430252685,-0.8317585952778798,1
367,"Thrissur,, Ollur Industrial Estate, Ollur, Thrissur, Kerala 680306, India",680306,,Thrissur,KERALA,-0.1773885469918756,0.025212895784189567,0
370,"410,r.k nagar,pitchampalayam pudur post, PN Rd, Raja Nagar, Pitchampalayam Pudur, Tiruppur, Tamil Nadu 641602, India",641602,Tiruppur,Coimbatore,TAMIL NADU,-0.08014266626996422,0.09487462694016671,0
371,"S.F NO.278 & 279, Sundharam Nagar West, Erode Main Road, Andankoil West, Karur, Tamil Nadu 639002, India",639002,Aravakurichi,Karur,TAMIL NADU,-0.1044441562855393,0.14041054414539203,0
373,"331/4t, 15, 15 Velampalayam Main Rd, Periyar Colony, Velampalayam, Tiruppur, A.Thirumuruganpoondi, Tamil Nadu 641652, India",641652,Tiruppur,Coimbatore,TAMIL NADU,-0.07730412151106443,0.09302365013527163,0
374,"MGHX+HMC, Industrial Estate Rd, Ettumanoor, Kerala 686631, India",686631,Kottayam,Kottayam,KERALA,-0.2990359598512842,0.04536535629108809,0
375,"Pallichal Road, Valummel, Pallichal, Kochi, Kerala 682005, India",682005,Kochi,Ernakulam,KERALA,-0.25871221382985365,0.026407141650799958,0
376,"W4, Chettipalayam Rd, near L&T Campus, Srinivasa Nagar, Eachanari, Malumichampatti, Podanur, Tamil Nadu 641021, India",641021,Coimbatore South,Coimbatore,TAMIL NADU,-0.10773464729179563,0.0718799432506487,0
377,"Mallikassery, Kerala 686577, India",686577,Meenachil,Kottayam,KERALA,-0.3039818573131932,0.05656118050328688,0
379,"2nd Floor,307/C6,KSIE Building Cochin InternationalContainer Freight Staton, Old Anavathil Jn ICTT Road, P.O, Udyogamandal, Kalamassery, Kochi, Kerala 683501, India",683501,Ernakulam,Ernakulam,KERALA,-0.23978802022229093,0.029304794173816488,0
381,"G635+RX6, Kanjirangady, Koorkenchery, Thrissur, Kerala 680007, India",680007,,Thrissur,KERALA,-0.17449911695821166,0.023122316254392778,0
382,"3F3J+62X, Vengola, Kerala 683556, India",683556,Kunnathunad,Ernakulam,KERALA,-0.23710689744319863,0.039932093470242035,0
383,"Old No: 3/306/C, S.F.No: 302/2A1, திருப்பூர்-பல்லடம் சாலை, Kuppandampalayam, Koolipalayam Ring Rd, AB Nagar, Veerapandi, Tiruppur, Tamil Nadu 641605, India",641605,Kangayam,Erode,TAMIL NADU,-0.08019659230891528,0.09435305136593018,0
387,"kuppandampalayam, 3/547, Balaji Nagar, Veerapandi, Tiruppur, Tamil Nadu 641605, India",641605,Kangayam,Erode,TAMIL NADU,-0.08019659230891528,0.09435305136593018,0
392,"No. 11, Dharga Rd, Dadashamakan, Jamalia, Chennai, Tamil Nadu 600012, India",600012,Perambur Purasawalkam,Chennai,TAMIL NADU,0.17500324021263264,0.25796884498480044,0
393,"JHFH+M8V, Vatakara - Nadapuram - Thottilpalam Rd, Chorode, Kerala 673103, India",673103,Vadakara,Kozhikode,KERALA,-0.008400244763215542,-0.016391819598563447,0
394,"5CFP+MQ4, Enchackal Kavala, Kalady, Kerala 683574, India",683574,Aluva,Ernakulam,KERALA,-0.2220315406934414,0.03896705692472088,0
395,"11-A, Kottai Thottam, near Sivan Theatre Road, Postal Colony, North, Tiruppur, Tamil Nadu 641602, India",641602,Tiruppur,Coimbatore,TAMIL NADU,-0.08014266626996422,0.09487462694016671,0
396,"Sf No-648/2, Palladam Road, Back To Sriprathi Weigh Bridg, Veerapandi Post, Palladam Main Rd, Karuppa Gaundanpalayam, Tiruppur, Tamil Nadu 641605, India",641605,Kangayam,Erode,TAMIL NADU,-0.08019659230891528,0.09435305136593018,0
400,"II/750A, Industrial Development Area, Aroor gram panchayat, Kochi, Kerala 688534, India",688534,Cherthla,Alappuzha,KERALA,-0.2690744020321457,0.02923576043838081,0
401,"Peringuzha, XJ52+MH5, Perumpalloor P.O., Peringuzha, Ernakulam, Muvattupuzha, Kerala 686673, India",686673,Muvattupuzha,Ernakulam,KERALA,-0.25182026033814353,0.04670736603110465,0
402,"2, Mariamman Kovil St, Anupparpalayam Pudur, Tiruppur, A.Thirumuruganpoondi, Tamil Nadu 641602, India",641602,Tiruppur,Coimbatore,TAMIL NADU,-0.08014266626996422,0.09487462694016671,0
403,"W86X+8XH, Kannur - Alavil - Valapattanam Rd, Chirakkal, Kerala 670009, India",670009,Kannur,Kannur,KERALA,6.080809095572021,2.0125954849436516,1
404,"24, E92, Kalai Nagar 13th W St, Kamaraj Nagar, Thiruvanmiyur, Chennai, Tamil Nadu 600041, India",600041,Chennai City Corporation,Kanchipuram,TAMIL NADU,0.20090984260843694,0.2789496422859898,0
408,"4/353, Pappa Nagar, 2nd Street, Pitchampalayam Pudu Post, Lakshmi Nagar, Lakshmi Nagar, Tirupur, Guduvancheri, Tamil Nadu 641602, India",641602,Tiruppur,Coimbatore,TAMIL NADU,-0.08014266626996422,0.09487462694016671,0
409,"90, Palaghat Rd, Pollachi, Tamil Nadu 642001, India",642001,Pollachi,Coimbatore,TAMIL NADU,-0.1513863755727513,0.07625751809189908,0
410,"ATC Building, Moolepadam Nagar Road HMT Junction, Kalamassery, HMT Junction, Moolepadam Nagar, South Kalamassery, Kalamassery, Kochi, Kerala 683104, India",683104,Kanayannur,Ernakulam,KERALA,-0.24097557193012475,0.03017012177159544,0
411,"Aluva - Mala Rd, Ayroor, Attupuram, Kerala 683579, India",683579,Paravur,Ernakulam,KERALA,-0.22239020158097905,0.02999150108095476,0
413,"1/335, Rose St, Fort Nagar, Fort Kochi, Kochi, Kerala 682001, India",682001,Kochi,Ernakulam,KERALA,-0.2554273329516263,0.02538177500566223,0
414,"Plot No: 15, KINFRA HI-TECH Park, Opp Co-operative Medical College, P.O, HMT Colony, North Kalamassery, Kalamassery, Kochi, Kerala 683503, India",683503,Kanayannur,Ernakulam,KERALA,-0.24086291280282113,0.03130546587335558,0
415,"7/11, T S R Layout, 1st Street, Kongu Main Road, Kongu Main Road, Tiruppur, Tamil Nadu 641607, India",641607,Tirupur,Coimbatore,TAMIL NADU,-0.08008612570753879,0.09593310959954607,0
418,"XXX7+GXF, Edappally - Panvel Hwy, Kerala 676508, India",676508,Tirurangadi,Malappuram,KERALA,-0.09024342258956722,0.005980293673974924,0
419,"X745+262, 1st Main Rd Sandeep Ave, Sandeep Avenue, Sakthimoorthiamman Nagar, Palavakkam, Chennai, Tamil Nadu 600041, India",600041,Chennai City Corporation,Kanchipuram,TAMIL NADU,0.20090984260843694,0.2789496422859898,0
423,"Kinfra Industrial Park, Kanjikode, Kinfra Textile Park, Kerala 678621, India",678621,Palakkad,Palakkad,KERALA,-0.1286100275029237,0.05839624345084872,0
424,"Kerala, India",682002,Kochi,Ernakulam,KERALA,-0.25614113630356034,0.026054744348465164,0
425,"S.NO,10, NEAR RAMANUIJA RAGAR), Kamarajar Rd, Gandhipudur, Lakshmi Ammal Layout, Lakshmipuram, Uppilipalayam, Coimbatore, Tamil Nadu 641015, India",641015,Coimbatore South,Coimbatore,TAMIL NADU,-0.09650167891746124,0.07455277213711199,0
426,"137, Subramanyam Road, R.S. Puram, Coimbatore, Tamil Nadu 641002, India",641002,Coimbatore South,Coimbatore,TAMIL NADU,-0.09687348809554108,0.07009170074035175,0
427,"Kattakkada Road, near Ayyappa Temple, Balaramapuram, Kerala 695501, India",695501,Neyyattinkara,Thiruvananthapuram,KERALA,-0.48701547308450427,0.07464696467823077,0
429,"585H+249, सक्ति नगर, Sankarapuram, Choolaimedu, Chennai, Tiruppur, Tamil Nadu 641652, India",641652,Tiruppur,Coimbatore,TAMIL NADU,-0.07730412151106443,0.09302365013527163,0
430,"NO:50, LAKSHMI BUILDING, Tiruppur - Kangayam Rd, opp. BSNL EXCHANGE, Rajiv Nagar, Karuvampalayam, Tiruppur, Tamil Nadu 641604, India",641604,Tiruppur,Coimbatore,TAMIL NADU,-0.0839111833056176,0.09527016921397699,0
432,"XCVM+QPG, Aikaranad North, Kerala 682310, India",682310,Kunnathunad,Ernakulam,KERALA,-0.25150604736765975,0.03717953602985149,0
434,"Bus stop, Bus Stop, College Rd, near Konganagiri, Odakkadu, Tiruppur, Tamil Nadu 641602, India",641602,Tiruppur,Coimbatore,TAMIL NADU,-0.08014266626996422,0.09487462694016671,0
435,"Project Colony Road, Industrial Development Area, Aroor, Aroor gram panchayat, Kochi, Kerala 688534, India",688534,Cherthla,Alappuzha,KERALA,-0.2690744020321457,0.02923576043838081,0
436,"National Highway 47, Chandiroor, Kerala 688535, India",688535,Cherthala,Alappuzha,KERALA,-0.2713785761232395,0.030408067960180588,0
437,"VSS Complex, Mettupalayam Rd, Daniel Nagar, Thoppampatti Pirivu, K. Vadamadurai, Kurudampalayam, Coimbatore, Tamil Nadu 641017, India",641017,Coimbatore North,Coimbatore,TAMIL NADU,-0.08503464635718477,0.06932421199154572,0
438,"Annanad Post, Chalakudy, 78HC+7F8, Thrissur, Annanad, Kerala 680309, India",680309,Mukundapuram,Thrissur,KERALA,-0.20817237210881728,0.03047283616942874,0
439,"B.7, HMT Rd, Industrial Estate, P.O, Kalamassery, Kochi, Kerala 683503, India",683503,Kanayannur,Ernakulam,KERALA,-0.24086291280282113,0.03130546587335558,0
440,"3, 3rd Cross Rd, Bharathiyar Street, North Gandhi Gramam, Karur, Senapiratti, Tamil Nadu 639004, India",639004,Karur,Karur,TAMIL NADU,-0.10622422028764314,0.14262995552893318,0
441,"49M4+5C6, KN Palayam, Kanjam Palayam Pirivu, Tiruppur, Tamil Nadu 641607, India",641607,Tirupur,Coimbatore,TAMIL NADU,-0.08008612570753879,0.09593310959954607,0
444,"South Gate of Secretariat, Press Rd, Statue, Palayam, Thiruvananthapuram, Kerala 695001, India",695001,Thiruvananthapuram,Thiruvananthapuram,KERALA,-0.47726340660575045,0.07007914816396411,0
445,"SF no: 378/3, 279/1, PO, Ganesh Nagar, Malumichampatti, Tamil Nadu 641050, India",641050,Coimbatore,Coimbatore,TAMIL NADU,-0.11056990228773446,0.07308225428137792,0
447,"23G4+J3V, Malappuram, Kerala 676528, India",676528,Tirurangadi,Malappuram,KERALA,-0.09400987434947708,0.01197209363688277,0
449,"18D, AB Nagar, Velampalayam, Tiruppur, Tamil Nadu 641603, India",641603,Tiruppur,Coimbatore,TAMIL NADU,-0.0779661700573292,0.0947980283924137,0
450,"Illikkal Kallu, Illikkal Kallu Rd, Moonnilavu, Poonjar Vadakkekara, Kerala 686586, India",686586,Meenachil,Kottayam,KERALA,-0.28758174500534694,0.05963712448711591,0
451,"SF.NO:-343.DR.UDAYAMOORTHY NAGAR,NEAR, Thadagam Main Rd, Luna Nagar, Edayarpalayam, Coimbatore, Tamil Nadu 641025, India",641025,Coimbatore North,Coimbatore,TAMIL NADU,-0.09265096208754024,0.06863637197258028,0
452,"Sakthikulangara, Kollam, Kerala 691581, India",691581,Kollam,Kollam,KERALA,-0.41175142223292144,0.044546262698131896,0
453,"Palaghat, Pollachi, Tamil Nadu 642001, India",642001,Pollachi,Coimbatore,TAMIL NADU,-0.1513863755727513,0.07625751809189908,0
454,"W779+J78, Nambiapuram Rd, Palluruthy, Kochi, Kerala 682006, India",682006,Kochi,Ernakulam,KERALA,-0.2621298749486079,0.027270123055403418,0
455,"229/5C Irugur, to, Chinniyampalayam Road, Arasamarath Thottam, Athappagoundenpudur, Coimbatore, Tamil Nadu 641103, India",641103,Mettupalayam,Coimbatore,TAMIL NADU,-0.09613058926744632,0.0773564347405976,0
457,"Kinfra Apperal Parks Indroyal, road, Thumba, Thiruvananthapuram, Kerala 695586, India",695586,Thiruvananthapuram,Thiruvananthapuram,KERALA,-0.466221486757281,0.06329598948719788,0
458,"35/2265A, Infra House, BC Lane, Church Rd, Pallinada, Palarivattom, Kochi, Kerala 682025, India",682025,Ernakulam,Ernakulam,KERALA,-0.24962089452011066,0.02945375803537226,0
459,"XVI/235, Choornikkara, Aluva, Kerala 683106, India",683106,Aluva,Ernakulam,KERALA,-0.23752751264511437,0.03165420091087583,0
460,"3W93+54W, Chemmad-Thalappara Rd, Muttichira, Moonniyur, Kerala 676311, India",676311,Tirurangadi,Malappuram,KERALA,-0.08923490460871479,0.003279826281114452,0
461,"V8P2+375, Aroor gram panchayat, Kochi, Kerala 688534, India",688534,Cherthla,Alappuzha,KERALA,-0.2690744020321457,0.02923576043838081,0
462,"48PJ+3HQ, A Block, Gandhinagar, Velampalayam, Tiruppur, Tamil Nadu 641603, India",641603,Tiruppur,Coimbatore,TAMIL NADU,-0.0779661700573292,0.0947980283924137,0
463,"Kanjirakkad, Perumbavoor, Kerala 683543, India",683543,Kunnathunad,Ernakulam,KERALA,-0.23109838353867837,0.04055461189433655,0
464,"B St, Manvila Industrial Estate, Manvila, Thiruvananthapuram, Kerala 695583, India",695583,Thiruvananthapuram,Thiruvananthapuram,KERALA,-0.4914375719040652,0.07506016632046214,0
465,"SN Junction , Kayal Road Muhamma, J988+P9V, Post, Aryakara, Alappuzha, Muhamma, Kerala 688525, India",688525,Cherthala,Alappuzha,KERALA,-0.3072381939469009,0.03267525151209178,0
466,"S.F.No.1032/5, Madukkarai Village, Madukkarai, Taluk, Madukkarai, Tamil Nadu 641105, India",641105,Coimbatore South,Coimbatore,TAMIL NADU,-0.11156560526430767,0.07024166249616247,0
467,"JPP Mills, Tamil Nadu 637304, India",637304,Tiruchengodu,Namakkal,TAMIL NADU,-0.03612606392633775,0.12650415386882227,0
470,"2/294, Jeeva nagar,Muthanampalayam (PO Sevanthampalayam, K Chettipalayam, Tiruppur, Tamil Nadu 641606, India",641606,Tiruppur,Coimbatore,TAMIL NADU,-0.08212370397089003,0.09840070014290796,0
472,"Thadapparambu, Mulagunnathukavu, Thrissur, Killannur, Kerala 680581, India",680581,Thrissur,Thrissur,KERALA,-0.1626211976366976,0.024186545296559146,0
475,"SF No 165/1, Sembagounden Pudur, Kuppepalayam, Tamil Nadu 641107, India",641107,Coimbatore South,Coimbatore,TAMIL NADU,-0.07838148616930292,0.07533340866941907,0
478,"39W8+9XF, KNS Subramaniam Nagar, Tiruppur, Tamil Nadu 641605, India",641605,Kangayam,Erode,TAMIL NADU,-0.08019659230891528,0.09435305136593018,0
482,"6HWM+972, Kochalummoodu, Vettiyar, Mavelikara, Kerala 690108, India",690108,Mavelikkara,Alappuzha,KERALA,-0.36312144771524163,0.04646779866477866,0
483,"F8PQ+R47, Municipal Stadium Ward, Vellakkinar, Alappuzha, Kerala 688011, India",688011,Ambalapuzha,Alappuzha,KERALA,-0.32615375351105047,0.031722738861484544,0
485,"10 KVP Layout, Alangadu, Karuvampalayam, Tiruppur, Tamil Nadu 641604, India",641604,Tiruppur,Coimbatore,TAMIL NADU,-0.0839111833056176,0.09527016921397699,0
487,"HFVP+R9F, Vadakkencherry Bazar Rd, Amakkulam, Vadakkencherry, Kerala 678683, India",678683,Alathur,Palakkad,KERALA,-0.16893723408778058,0.04140893655675252,0
488,"Ingur - Sipcot Rd, Erode, Tamil Nadu 638056, India",638056,Perundurai,Erode,TAMIL NADU,-0.0622287018274214,0.10437517909733297,0
490,"Kalavamkodam Post Office, Thankey Jn. - Saktheeshwaram, Alappuzha, Kerala 688524, India",688524,Cherthala,Alappuzha,KERALA,-0.2966915384962999,0.031033713294672704,0
491,"4/440c, Bharathi Nagar, Near Kumaran Ginning Factory,, Veerapandi, Tiruppur, Tamil Nadu 641605, India",641605,Kangayam,Erode,TAMIL NADU,-0.08019659230891528,0.09435305136593018,0
495,"48XW+MW6, PN Rd, Raja Nagar, Poyampalayam, Tiruppur, Tamil Nadu 641603, India",641603,Tiruppur,Coimbatore,TAMIL NADU,-0.0779661700573292,0.0947980283924137,0
496,"Thanneermukkom Alleppey, Verungumchuvad, Cherthala, Thanneermukkom, Kerala 688527, India",688527,Cherthala,Alappuzha,KERALA,-0.30049491763833064,0.03346250204329032,0
497,"V7PW+VQF, Aroor gram panchayat, Kochi, Kerala 688534, India",688534,Cherthla,Alappuzha,KERALA,-0.2690744020321457,0.02923576043838081,0
498,"Thuravankad, Pullur, Kerala 680683, India",680683,Mukundapuram,Thrissur,KERALA,-0.19858944248790614,0.028133889534694697,0
499,"Block Office, Road, Kavilpad, Palakkad, Pirayiri, Kerala 678006, India",678006,Palakkad,Palakkad,KERALA,-0.1323236114838239,0.049980092523484745,0
500,"Fire Station, 8/50, opp. Beach Road, Moonalingal, Kozhikode, Kerala 673032, India",673032,Kozhikode,Kozhikode,KERALA,-0.05975327779183934,-0.004326472035293626,0
501,"9/1153, Big Bazaar Rd, Big Bazaar, Mananchira, Kozhikode, Kerala 673001, India",673001,Kozhikode,Kozhikode,KERALA,-0.06051774801487859,-0.0038197113639194683,0
502,"Industrial development Plot, Poovanthuruthu, Kottayam, Kerala 686012, India",686012,Kottayam,Kottayam,KERALA,-0.31794317304059694,0.04300024107956015,0
503,"CCSB Rd, Kodiveedu, Alappuzha, Kerala 688001, India",688001,Ambalapuzha,Alappuzha,KERALA,-0.32583434330238176,0.030985833317479256,0
504,"10°08'13. 76°27'43.0""E, 3rd Cross Road, Vallom, Ezhattumugham, Chelamattom part, Kerala 683550, India",683550,Kunnathunad,Ernakulam,KERALA,-0.22601749574616892,0.03838936455450059,0
505,"5F22+6XR, opposite Reliance Petrol Pump, P.O, Okkal, Kalady, Ernakulam, Kerala 683550, India",683550,Kunnathunad,Ernakulam,KERALA,-0.22601749574616892,0.03838936455450059,0
506,"6548+85F, Azhikode – Chamakkala Rd, Azhikode, Kerala 680666, India",680666,Kodungallur,Thrissur,KERALA,-0.2164582299080314,0.020881740090315307,0
507,"14-D, E, F LAKSHMI NAGAR, CITY GARDEN, 1st St, Laxmi Nagar, Tiruppur, Tamil Nadu 641602, India",641602,Tiruppur,Coimbatore,TAMIL NADU,-0.08014266626996422,0.09487462694016671,0
508,"Kodugallur, 6692+MMF, NH17, Kunnumpuram, Methala, Kodungallur, Kerala 680664, India",680664,Kodungallur,Thrissur,KERALA,-0.21539184880468049,0.022483471488143586,0
510,"397R+P3M, Kovil Vazhli - Muthanapalayam Road, Muthanampalayam, Tiruppur, Tamil Nadu 641606, India",641606,Tiruppur,Coimbatore,TAMIL NADU,-0.08212370397089003,0.09840070014290796,0
512,"56FP+864, Sembianallur, Avinashi, Tamil Nadu 641654, India",641654,,Coimbatore,TAMIL NADU,-0.07211273658542343,0.08790698463255031,0
515,"14 A PTR NAGAR, Pudur Vandipathai Rd, Ramaond Reserve Line, Athikulam, Naganakulam, Tamil Nadu 625007, India",625007,,Madurai,TAMIL NADU,-0.25769048174621756,0.14551809126334248,0
517,"No 122/13, Bajanai Kovil Street Post, Konavattam, Kel Moonavur, Vellore, Tamil Nadu 632013, India",632013,Vlr,Vellore,TAMIL NADU,0.1922356296366389,0.20660846868280855,0
519,"15, Krishna Nagar, (Opp. Jaya Arts College), Thiruninravur, Chennai, Tamil Nadu 602024, India",602024,,Tiruvallur,TAMIL NADU,0.22303936196215376,0.26357013699220105,0
523,"49, 13-4, Vellalar Colony E, Simon Nagar, Nagercoil, Tamil Nadu 629001, India",629001,Agastheeswaram,Kanyakumari,TAMIL NADU,-0.5244615494304757,0.1003612689247548,0
524,"XPM5+V56, Pezhookonam, Cheerankavu, Kollam, Kerala 691505, India",691505,Kottarakkara,Kollam,KERALA,-0.40249967781614,0.05555160251412866,0
526,"S N Lace Building First floor, Sabari super Bazar, Balaramapuram Main Rd, Pazhayakadalane, Balaramapuram, Kerala 695501, India",695501,Neyyattinkara,Thiruvananthapuram,KERALA,-0.48701547308450427,0.07464696467823077,0
528,"National Highway Bye Pass, Kannadi Kadu Service Rd, Adjacent to Hotel Wyte Fort, Jaya Nagar, Maradu, Kochi, Kerala 682304, India",682304,Ernakulam,Ernakulam,KERALA,-0.2589201956658101,0.030575091500509625,0
529,"FWPR+WPC, Temple Rd, Sreekandeswaram, Nalumukku, Pazhavangadi, Thiruvananthapuram, Kerala 695024, India",695024,Thiruvananthapuram,Thiruvananthapuram,KERALA,-0.47815789153272215,0.06874163365149834,0
530,"Kaipattoor, Mekalady, Kalady, Kerala 683574, India",683574,Aluva,Ernakulam,KERALA,-0.2220315406934414,0.03896705692472088,0
531,"Nellayi, Ponkothra, Kerala 680305, India",680305,Mukundapuram,Thrissur,KERALA,-0.1917740721137925,0.026782544611734002,0
532,"Anandapuram Nellayi Rd, Ponkothra, Kerala 680305, India",680305,Mukundapuram,Thrissur,KERALA,-0.1917740721137925,0.026782544611734002,0
533,"97WG+2XH, Anandapuram Nellayi Rd, Ponkothra, Kerala 680305, India",680305,Mukundapuram,Thrissur,KERALA,-0.1917740721137925,0.026782544611734002,0
534,"Door No. 39/1607, Maria Complex, Kannamthottathil Road, Valanjambalam, Eroor Rd, Kappattikavu, Eroor North, Eroor, Kochi, Kerala 682306, India",682306,Ernakulam,Ernakulam,KERALA,-0.254510693109367,0.031189973062181374,0
535,"C942+67H, Neerkunnam, Vandanam, Kerala 688005, India",688005,Ambalappuzha,Alappuzha,KERALA,-0.33924759409530736,0.03222472013754511,0
537,"No. 9/196 A Elathur, pooladikunnu, Kozhikode, Kerala 673303, India",673303,Kozhikode,Kozhikode,KERALA,-0.045284487736293774,-0.005578753680588951,0
539,"Pound Rd, Puthur, Thrissur, Kerala 680014, India",680014,Thrissur,Thrissur,KERALA,-0.1757514542857828,0.02793677230718896,0
541,"Thrissur, Kerala, India",688534,Cherthla,Alappuzha,KERALA,-0.2690744020321457,0.02923576043838081,0
542,"No. 1/9 A, Kullegoundenpudur, Mangalam Rd, Iduvampalayam, Tiruppur, Tamil Nadu 641687, India",641687,Tiruppur,Coimbatore,TAMIL NADU,-0.08362925877539708,0.09273776390048397,0
544,"Kannan Devan Hills, Kerala, India",686012,Kottayam,Kottayam,KERALA,-0.31794317304059694,0.04300024107956015,0
545,"Sundarapuram, LIC Colony, Coimbatore, Tamil Nadu 641024, India",641024,Coimbatore South,Coimbatore,TAMIL NADU,6.657995467390194,-0.8295422434310707,1
546,"2, Palladam Main Rd, AB Nagar, Veerapandi, Tiruppur, Tamil Nadu 641605, India",641605,Kangayam,Erode,TAMIL NADU,-0.08019659230891528,0.09435305136593018,0
550,"2nd Floor, 13, 1st Cross St, Pankajam Colony, Kamarajar Salai, Madurai, Tamil Nadu 625009, India",625009,Madurai North,Madurai,TAMIL NADU,-0.24722531395759392,0.14648103344549318,0
553,"No:9, 2nd Street, Kongu Main Rd, Tiruppur, Tamil Nadu 641607, India",641607,Tirupur,Coimbatore,TAMIL NADU,-0.08008612570753879,0.09593310959954607,0
556,"No-9, Senkunthapuram, Karuvam Palyam, Mangalam Road, Karuvam Palyam, Sengunthapuram, Karuvampalayam, Tiruppur, Tamil Nadu 641604, India",641604,Tiruppur,Coimbatore,TAMIL NADU,-0.0839111833056176,0.09527016921397699,0
558,"No B, 12, Kodungaiyur (East), Sidco Industrial Estate, Kodungaiyur, Chennai, Tamil Nadu 600118, India",600118,Chennai,Chennai,TAMIL NADU,0.22286556401507934,0.2781611663048396,0
560,"GWGH+5MG, Medical College Ulloor Rd, Opposite Medical College, P T Chacko Nagar, Ulloor, Thiruvananthapuram, Kerala 695011, India",695011,Thiruvananthapuram,Thiruvananthapuram,KERALA,-0.4722687497471896,0.06808429128567874,0
561,"Sf No. 245, Opp. Kasipalayam Road, Nallur, Tiruppur, Tamil Nadu 641606, India",641606,Tiruppur,Coimbatore,TAMIL NADU,-0.08212370397089003,0.09840070014290796,0
563,"Basin Rd, Marine Drive, Ernakulam, Kochi, Kerala 682031, India",682031,Ernakulam,Ernakulam,KERALA,-0.2501424736501998,0.027359932141625777,0
564,"S.F. No.428/1,Eran Thottam, Sathy Road, Ganapathypudur, Sri Laxmi Nagar, Ganapathy, Coimbatore, Tamil Nadu 641006, India",641006,Coimbatore North,Coimbatore,TAMIL NADU,-0.08946757005052551,0.07310220405569533,0
565,"Chanthapallam, Cheriakadavu, Kannamaly, Kochi, Kerala 682008, India",682008,Kochi,Ernakulam,KERALA,-0.26939676173327376,0.026808933936929142,0
566,"1, 1/514, Serayampalayam Rd, Neelambur, Tamil Nadu 641062, India",641062,Coimbatore South,Coimbatore,TAMIL NADU,-0.08889537027391503,0.07787555705977878,0
567,"M8QW+X2C, Nedumbrakkad, Alleppey, Cherthala, Kerala 688524, India",688524,Cherthala,Alappuzha,KERALA,-0.2966915384962999,0.031033713294672704,0
568,"Poonthope Ward, Rahul Nivas, Kommady, Alappuzha, Aryad South, Kerala 688006, India",688006,Ambalapuzha,Alappuzha,KERALA,-0.32141858495711534,0.031420129411918296,0
570,"Kerala, India",686012,Kottayam,Kottayam,KERALA,-0.31794317304059694,0.04300024107956015,0
571,"Kerala, India",688524,Cherthala,Alappuzha,KERALA,-0.2966915384962999,0.031033713294672704,0
572,"G89H+M6C, Kommady, Kaichoondi, Alappuzha, Aryad South, Kerala 688008, India",688008,Ambalapuzha,Alappuzha,KERALA,-0.32204055058491565,0.03050098478937685,0
573,"Kerala, India",688534,Cherthla,Alappuzha,KERALA,-0.2690744020321457,0.02923576043838081,0
574,"VHPR+QVM, Parameswar Nagar, Kollam, Kerala 691001, India",691001,Kollam,Kollam,KERALA,-0.4180275983895557,0.04780095093935773,0
575,"Vennicode, Kerala 695318, India",695318,Chirayinkeezhu,Thiruvananthapuram,KERALA,-0.4451557023239951,0.05758660736691088,0
576,"F8WJ+464, CCNB Rd, Market Ward, Alappuzha, Kerala 688001, India",688001,Ambalapuzha,Alappuzha,KERALA,-0.32583434330238176,0.030985833317479256,0
577,"Pettah, Thiruvananthapuram, Kerala 695024, India",695024,Thiruvananthapuram,Thiruvananthapuram,KERALA,-0.47815789153272215,0.06874163365149834,0
578,"Rubco House South Bazar, Puzhathi Housing colony, Puzhathi Housing Colony, Kannur, Kerala 670002, India",670002,Kannur,Kannur,KERALA,0.029040732730040104,-0.028155503380024153,0
579,"28X9+FFJ, Salem-Ernakulam Highway, South Kalamassery, Kalamassery, Kochi, Kerala 682039, India",682039,Ernakulam,Ernakulam,KERALA,-0.24897457829788286,0.031944561659713135,0
580,"F3X5+669, Engandiyoor, Kerala 680615, India",680615,Chavakkad,Thrissur,KERALA,-0.17320123161050582,0.013874893065512062,0
581,"HHWW+576, New Bus stand-Govt.Hospital Rd, Nut Street, Vatakara, Kerala 673101, India",673101,Vadakara,Kozhikode,KERALA,-0.007635042551785856,-0.016035615753947463,0
583,"Uliyakovil West, Uliyakovil, Kollam, Kerala 691019, India",691019,Kollam,Kollam,KERALA,-0.41545836855481916,0.04873944144262082,0
584,"Ottapalam - Cherppulassery Rd, Thrikkadeeri -I, Kerala 679502, India",679502,Ottapalam,Palakkad,KERALA,-0.12026528596189826,0.03193563915973131,0
586,"Fr Dismas Rd, near Christ College, Near Christ College, Irinjalakuda, Kerala 680125, India",680125,Mukundapuram,Thrissur,KERALA,-0.19529197801749865,0.023328162487551825,0
587,"D.No.666/ 18A, A.D.Colony, North Guruvayurappan Nagar Extn, Poyampalayam Pooluvapatti, post, Vigneshwara Nagar, Poyampalayam, Tiruppur, Tamil Nadu 641602, India",641602,Tiruppur,Coimbatore,TAMIL NADU,-0.08014266626996422,0.09487462694016671,0
588,"Sf 256, Saraswathi Garden, Narikadu, Karuvam Palyam, Karuvam Palyam, RVE Nagar, Valliammai Nagar, Tiruppur, Tamil Nadu 641604, India",641604,Tiruppur,Coimbatore,TAMIL NADU,-0.0839111833056176,0.09527016921397699,0
590,"ARWA-B-29, Vishwam Nagar, Palluruthy, Kochi, Kerala 682006, India",682006,Kochi,Ernakulam,KERALA,-0.2621298749486079,0.027270123055403418,0
591,"59M9+8X8, Angamaly South, Angamaly, Kerala 683573, India",683573,Aluva,Ernakulam,KERALA,-0.22241890635472705,0.034378033046545124,0
592,"No. 1/511-A, 47, Old NH17, Kundannoor, Maradu, Ernakulam, Kochi, Kerala 682304, India",682304,Ernakulam,Ernakulam,KERALA,-0.2589201956658101,0.030575091500509625,0
593,"1st Floor, Grand Marketting Centre, Fort Rd, Kannur, Kerala 670001, India",670001,Kannur,Kannur,KERALA,0.032426853821939536,-0.02868693769829999,0
594,"mookkannoor, Angamaly, Mookkannoor, Kerala 683577, India",683577,Aluva,Ernakulam,KERALA,-0.21391888074759216,0.03628380162784403,0
595,"Cholayil Tower, Parappur, Main Rd, Kottakkal, Kerala 676503, India",676503,Tirur,Malappuram,KERALA,-0.0987131770231458,0.010803263259267776,0
597,"Kottakkal, Kerala, India",688534,Cherthla,Alappuzha,KERALA,-0.2690744020321457,0.02923576043838081,0
598,"KINFRA FOOD PROCESSING PARK PLOT NO. 13-A & 12-B, Kakkanchery, Kerala 673635, India",673635,Tirurangadi,Malappuram,KERALA,6.022824758338394,2.717558699602452,1
599,"96/A, Palace Rd, Mahal Area, Madurai Main, Madurai, Tamil Nadu 625001, India",625001,Madurai South,Madurai,TAMIL NADU,-0.2511147627029015,0.14694824042643348,0
602,"Kakkodu, Punalur, Kerala 691331, India",691331,Pathanapuram,Kollam,KERALA,-0.3986994774355712,0.06941689175202843,0
603,"18/24, Thoppumpady, Kochi, Kerala 682005, India",682005,Kochi,Ernakulam,KERALA,-0.25871221382985365,0.026407141650799958,0
604,"Kuthiathodu, Kodamthuruth, Kerala, India",688534,Cherthla,Alappuzha,KERALA,-0.2690744020321457,0.02923576043838081,0
605,"Kuttanad, Kuttanad Taluk, Kerala",688534,Cherthla,Alappuzha,KERALA,-0.2690744020321457,0.02923576043838081,0
606,"2853+PHQ Kuttukaran Centre, Mamangalam - Anchumana Temple Rd, Sonia Nagar, Edappally, Kochi, Kerala 682025, India",682025,Ernakulam,Ernakulam,KERALA,-0.24962089452011066,0.02945375803537226,0
607,"71/3, Kundrathur Main Rd, Madanandapuram, Madhanandapuram, Chennai, Tamil Nadu 600125, India",600125,Sriperumbudur,Kanchipuram,TAMIL NADU,0.2070752942367158,0.27302611444964264,0
608,"45Q3+9P2, Mopperipalayam, Tamil Nadu 641659, India",641659,Mettupalayam,Coimbatore,TAMIL NADU,-0.07675016540376454,0.08252427476730101,0
611,"PRVH+MV8, Karavaram, Kerala 695102, India",695102,Chirayinkeezhu,Thiruvananthapuram,KERALA,-0.4449877872496614,0.06029916574328586,0
612,"school padi, Pathapiriyam, Manjeri, Kerala 676123, India",676123,Ernad,Malappuram,KERALA,-0.07439144247084961,0.01863770161788853,0
615,"Synagogue Ln, Jew Town, Kappalandimukku, Mattancherry, Kochi, Kerala 682002, India",682002,Kochi,Ernakulam,KERALA,-0.25614113630356034,0.026054744348465164,0
616,"383F+Q7V, Palladam Main Rd, opposite Park School, Chinnakarai, Tiruppur, Murugampalayam, Tamil Nadu 641605, India",641605,Kangayam,Erode,TAMIL NADU,-0.08019659230891528,0.09435305136593018,0
620,"Industrial Estate, South Kalamassery, Kalamassery, Industrial Estate, South Kalamassery, Kalamassery, Kochi, Kerala 683104, India",683104,Kanayannur,Ernakulam,KERALA,-0.24097557193012475,0.03017012177159544,0
621,"No: 34, Vellapan Nagar, Peelamedu, Kuppakonam Pudur, Coimbatore, Tamil Nadu 641004, India",641004,Coimbatore South,Coimbatore,TAMIL NADU,-0.09411254785720152,0.07378930329566644,0
622,"43 C/10, road, Kadambur, Kayathar, Tamil Nadu 628952, India",628952,Kovilpatti,Tuticorin,TAMIL NADU,-0.4090235252023879,0.1220565048005034,0
624,"1, Pannimadai Rd, Appanaickenpalayam, Coimbatore, Tamil Nadu 641017, India",641017,Coimbatore North,Coimbatore,TAMIL NADU,-0.08503464635718477,0.06932421199154572,0
625,"7QM6+X9G, Chinniampalayam, Nanjaiuthukuli, Tamil Nadu 638115, India",638115,Erode,Erode,TAMIL NADU,-0.061739422743268525,0.11913183009359773,0
626,"CMC-3/79H, Madakkan's Building, North of Manorama Junction, Cherthala, Velorvattom, Alappuzha, Cherthala, Kerala 688524, India",688524,Cherthala,Alappuzha,KERALA,-0.2966915384962999,0.031033713294672704,0
627,"34/1000, Old NH 47, Edappally Junction, Nethaji Nagar, Edappally, Kochi, Kerala 682024, India",682024,Ernakulam,Ernakulam,KERALA,-0.2468210517406997,0.029118876559649207,0
628,"Door No.5, Jaya Building, 1129-K, Wayanad Rd, East Nadakkave, Nadakkave, Kozhikode, Kerala 673006, India",673006,Kozhikode,Kozhikode,KERALA,-0.05681451316400866,-0.003845313884659654,0
629,"MG COTTON COMPANY PVT LTD SF No. 442/2 - B1, 443/2 - B2A, Avinashilingampalayam, Palangarai, Village, Avinashi, Tamil Nadu 641654, India",641654,,Coimbatore,TAMIL NADU,-0.07211273658542343,0.08790698463255031,0
632,"Door No:17/425-A5, Golden Tower Building, &, Rajaji Cross Rd, near Indoor Stadium Cross Road, SK Temple, Tazhekkod, Kozhikode, Kerala 673004, India",673004,,Kozhikode,KERALA,-0.059499048102850054,-0.002846042976793813,0
634,"The Lattice, Old No 7/1, New No 20 2nd and 3rd Floor, Waddels Rd, Kilpauk, Chennai, Tamil Nadu 600010, India",600010,Perambur Purasawalkam,Chennai,TAMIL NADU,0.2162359077322548,0.277673504752904,0
635,"38WP+7F2, Karuvampalayam, Tiruppur, Tamil Nadu 641604, India",641604,Tiruppur,Coimbatore,TAMIL NADU,-0.0839111833056176,0.09527016921397699,0
637,"11/85-A, PO, Kollanur, Eravakkad, Kerala 679552, India",679552,Ottappalam,Palakkad,KERALA,-0.13409476436657905,0.013760894512509801,0
640,"S.F. No.276, 1C, Ganapathipalayam Rd, Veerapandi, PO, Tiruppur, Tamil Nadu 641605, India",641605,Kangayam,Erode,TAMIL NADU,-0.08019659230891528,0.09435305136593018,0
644,"45/18b pillaiyar kovil, south st, Krishnapuram, Tirunelveli, Kadayanallur, Tamil Nadu 627751, India",627751,Tenkasi,Tirunelveli,TAMIL NADU,-0.3881731932339903,0.09516279077620064,0
645,"no 2 a ak nagar seeyankadu karumarampalayam 641607, Karumarpalayam, Tiruppur, Tamil Nadu 641607, India",641607,Tirupur,Coimbatore,TAMIL NADU,-0.08008612570753879,0.09593310959954607,0
648,"Jaihind Nagar Rd, Meprathupady, Vengola, Kerala 683556, India",683556,Kunnathunad,Ernakulam,KERALA,-0.23710689744319863,0.039932093470242035,0
649,"Old Market Rd, Angamaly, Kerala 683572, India",683572,Paravur,Ernakulam,KERALA,-0.22043372187057883,0.03422395244605456,0
651,"HB-07, Panampilly Nagar Ave, Main Avenue, Panampilly Nagar, Ernakulam, Kochi, Kerala 682036, India",682036,Ernakulam,Ernakulam,KERALA,-0.2557290508259916,0.028641943157637215,0
652,"MV SHOES, 10/209, NGGO Colony Road, Near NGGO Colony Gate Bus Stop, NGGO Colony, Thudiyalur, Tamil Nadu 641022, India",641022,Coimbatore North,Coimbatore,TAMIL NADU,6.626289244161609,-0.8316568100275593,1
653,"T.C. 43/122(5), MUTTATHARA P.O, Thi, Vallakkadavu, Thiruvananthapuram, Kerala 695008, India",695008,Thiruvananthapuram,Thiruvananthapuram,KERALA,-0.48028016443350063,0.06890328289927126,0
654,"107/2A1, Poonamallee High Rd, Senneer Kuppam, Chennai, Tamil Nadu 600056, India",600056,Sriperumbudur,Kanchipuram,TAMIL NADU,0.21285369352797182,0.27027448105969476,0
657,"Municipal Colony, Q496+CJG, Medical College Rd, Prabha Nagar Extension, Sundram Nagar, Thanjavur, Tamil Nadu 613007, India",613007,Thanjavur,Thanjavur,TAMIL NADU,-0.13340341736295977,0.20777392904685685,0
658,"10/326,, Cheerankavu - Puthoor Rd, Kerala 691505, India",691505,Kottarakkara,Kollam,KERALA,-0.40249967781614,0.05555160251412866,0
660,"QV5R+P72, Thalapady JHC, Kinya, Kerala 575023, India",688524,Cherthala,Alappuzha,KERALA,-0.2966915384962999,0.031033713294672704,0
661,"Room No. 546/30, Anchery Complex, Pallikulam Rd, Pallikkulam, Thrissur, Parappur, Kerala 680001, India",680001,Thrissur,Thrissur,KERALA,-0.682297865327683,-9.409307235278478,2
662,"Anappara (H, Randamkadavu, Ayyankunnu, Kerala 670706, India",670706,Thalassery,Kannur,KERALA,0.06092462732815524,-0.006691183234219991,0
664,"38J8+87Q, Edayar, Kerala 683502, India",683502,Paravur,Ernakulam,KERALA,-0.23641633448699914,0.029278565026179863,0
665,"South Vellarappilly P O, Aluva, Thekkumbhagom, Kerala 683580, India",683580,Aluva,Ernakulam,KERALA,-0.22860893829712708,0.03577662087321038,0
666,"Maliyekkal, Kerala 676525, India",676525,Nilambur,Malappuram,KERALA,-0.07177657742997315,0.030542391387607667,0
667,"Mudickal Perumbavoor, Ernakulam, Marampally, Kerala 683547, India",683547,Kunnathunad,Ernakulam,KERALA,-0.23590462379663185,0.037206897920994304,0
668,"GW67+V24, Poonthi Rd, Aakkulam, Thiruvananthapuram, Kerala 695033, India",695033,Thiruvananthapuram,Thiruvananthapuram,KERALA,-0.4747677709722756,0.06963404960336401,0
669,"44, 50 Feet Rd, Ramkrishnapuram, Karur, Tamil Nadu 639001, India",639001,Karur,Karur,TAMIL NADU,-0.10452658550065334,0.14109207602111168,0
670,"Kattoor, Kerala 680702, India",680702,Mukundapuram,Thrissur,KERALA,-0.1913727846058338,0.01982042142665369,0
671,"Jubilee Rd, Pallippuram, Angadipuram, Perintalmanna, Kerala 679322, India",679322,Perinthalmanna,Malappuram,KERALA,-0.10179426437914596,0.024445763936888437,0
673,"Cherthala - Arookutty Rd, South, Poochakkal, Kerala 688526, India",688526,Cherthala,Alappuzha,KERALA,-0.2789984024489413,0.03227096888548785,0
674,"11, 13th Central Cross St, MKB Nagar, Mahakavi Bharathiyar Nagar West, Mahakavi Bharathi Nagar, Vyasarpadi, Chennai, Tamil Nadu 600039, India",600039,Tondiarpet Fort St George,Chennai,TAMIL NADU,0.22216713495833704,0.27852126573166763,0
675,"778/5, Pitchampalayam Pudur PN Road P.N, Road, Shrinagar, Raja Nagar, Pitchampalayam Pudur, Tiruppur, Tamil Nadu 641603, India",641603,Tiruppur,Coimbatore,TAMIL NADU,-0.0779661700573292,0.0947980283924137,0
676,"Konoor, JTS Rd, Koratty, Kerala 680309, India",680309,Mukundapuram,Thrissur,KERALA,-0.20817237210881728,0.03047283616942874,0
677,"B-32 KINFRA Industries Park, Nellad, Mazhuvannoor, Kerala 686669, India",686669,Kunnathunad,Ernakulam,KERALA,-0.24856714708791589,0.043351100561809956,0
679,"IV/446A, Valavanadu, Pollathtai P.O, Kalavoor, Alappuzha, Kerala 688522, India",688522,Ambalapuzha,Alappuzha,KERALA,-0.31437420331411725,0.030342363854114252,0
681,"D.NO 23/9, GANDHI NAGAR SUKKALIYUR, near NAVALADIYAN MARRIAGE HALL, Karur, Karattuppalaiyam, Tamil Nadu 639003, India",639003,Karur,Karur,TAMIL NADU,-0.10796257293212261,0.13887145594492306,0
682,"Mayithara, Cherthala, Kerala, India",682002,Kochi,Ernakulam,KERALA,-0.25614113630356034,0.026054744348465164,0
683,"TKT MILL stop, 3/606A, post, opp. to Honda car showroom, Balaji Nagar, AB Nagar, Veerapandi, Tiruppur, Tamil Nadu 641605, India",641605,Kangayam,Erode,TAMIL NADU,-0.08019659230891528,0.09435305136593018,0
687,"21, S Veli St, South Gate, Periyar, Madurai Main, Madurai, Tamil Nadu 625001, India",625001,Madurai South,Madurai,TAMIL NADU,-0.2511147627029015,0.14694824042643348,0
690,"Kinfra Koratty Industrial Area Phase I, Koratty, Kerala 680309, India",680309,Mukundapuram,Thrissur,KERALA,-0.20817237210881728,0.03047283616942874,0
691,"Narasothipatti, Salem, Tamil Nadu 636004, India",636004,Salem,Salem,TAMIL NADU,0.004433463735957092,0.14499428375185422,0
692,"24/1290, Voltas Compound, Venkaraman Road, Wdi Wdi, Vathuruthy, Willingdon Island, Kochi, Kerala 680003, India",680003,Thrissur,Thrissur,KERALA,-0.6861717926874421,-9.408176832283422,2
693,"2M5F+H2J, pulinthanam east-cheempara-mavudy Rd, Pothanicad, Kerala 686671, India",686671,Kothamangalam,Ernakulam,KERALA,-0.24847064641637848,0.05383697275266505,0
694,"289/2A, Punniyavathi salai, Vijayapuram pirivu, Kangeyam, main road, Tiruppur, Tamil Nadu 641606, India",641606,Tiruppur,Coimbatore,TAMIL NADU,-0.08212370397089003,0.09840070014290796,0
696,"No. 199/2AB2, 198/2A2A and 198/2A2B SNMV College, Road, Malumichampatti, Tamil Nadu 641050, India",641050,Coimbatore,Coimbatore,TAMIL NADU,-0.11056990228773446,0.07308225428137792,0
697,"Varanam ,Puthanangadi, Krishnakripa, Cherthala, Kerala 688524, India",688524,Cherthala,Alappuzha,KERALA,-0.2966915384962999,0.031033713294672704,0
698,"2C5X+758, Engineering College Road, Kadayirippu, Kerala 682311, India",682311,Kunnathunad,Ernakulam,KERALA,-0.2517744062591304,0.0397093725184286,0
699,"Pullur, Irinjalakuda, Pullur, Kerala 680683, India",680683,Mukundapuram,Thrissur,KERALA,-0.19858944248790614,0.028133889534694697,0
700,"Rifayath Building, Mini Bypass Rd, Passport Office, Eranhippalam, Kozhikode, Kerala 673006, India",673006,Kozhikode,Kozhikode,KERALA,-0.05681451316400866,-0.003845313884659654,0
701,"44 & 46, 50 Feet Rd, Ramkrishnapuram, Karur, Tamil Nadu 639001, India",639001,Karur,Karur,TAMIL NADU,-0.10452658550065334,0.14109207602111168,0
702,"KINFRA Rd, Nellad, Mazhuvannoor, Kerala 686669, India",686669,Kunnathunad,Ernakulam,KERALA,-0.24856714708791589,0.043351100561809956,0
704,"Oil Mill Road, Behind S&S Supermarket, SH 16 Erumathala P O, Chunangamveli Aluva, Aramanakkunnu, Edathala, Kochi, Kerala 683112, India",683112,Kunnathunad,Ernakulam,KERALA,-0.23610657612678,0.0350361488730986,0
705,"HP9G+9W5, NH183, Vazhoor, Kerala 686504, India",686504,Changanassery,Kottayam,KERALA,-0.3154123389230466,0.054780226360980684,0
707,"ENKE Chambers, Gopala Prabhu Rd, Near MG Road, Shenoys, Kochi, Kerala 682035, India",682035,Ernakulam,Ernakulam,KERALA,-0.25281006148834895,0.02786718133854806,0
708,"2-68/B2 Shah Building College Road, Azhagiyamandapam, Tamil Nadu 629167, India",629167,Kalkulam,Kanyakumari,TAMIL NADU,-0.5120358917330361,0.0917006140732277,0
709,"Tristen tower, Market Rd, Kombara, Kacheripady, Kochi, Kerala 682018, India",682018,Ernakulam,Ernakulam,KERALA,-0.2509480369919714,0.02777955966865834,0
710,"Tiruppur, Tamil Nadu 641666, India",641666,Tirupur,Coimbatore,TAMIL NADU,-0.06856140344899497,0.09621509293800827,0
712,"6 A, Dharapuram Road, K N P Colony, Pudur Privu, Karatangadu, Tiruppur, Tamil Nadu 641605, India",641605,Kangayam,Erode,TAMIL NADU,-0.08019659230891528,0.09435305136593018,0
716,"QFVC+FWR, Industrial Estate, Palayad, Thalassery, Kerala 670661, India",670661,Thalassery,Kannur,KERALA,0.0217209154413292,-0.023477932987457113,0
717,"kallungakadavu, channanicadu, GGWW+Q2V P.O, Kottayam, Kerala 686533, India",686533,Kottayam,Kottayam,KERALA,-0.32108157331569737,0.04439458844506898,0
718,"P. B. Nos. 54, Moyalan Ceramics, 68, Ollur Town, Ollur, Thrissur, Kerala 680306, India",680306,,Thrissur,KERALA,-0.1773885469918756,0.025212895784189567,0
721,"S.F.NO 135/5, Jeeva Nagar, Murugampalayam Rd, Kamachiamman Nagar, Iduvampalayam, Tiruppur, Murugampalayam, Tamil Nadu 641687, India",641687,Tiruppur,Coimbatore,TAMIL NADU,-0.08362925877539708,0.09273776390048397,0
723,"Azizi Junction, MRT House, Social Welfare Technical School Rd, Aluva, Kerala 683101, India",683101,Aluva,Ernakulam,KERALA,-0.23520835084433755,0.032896184356004096,0
724,"G8RH+V3F, National Highway 47, Pathirappally, Poomkavu, Alappuzha, Kerala 688521, India",688521,Ambalapuzha,Alappuzha,KERALA,-0.31999689745659726,0.030755294671701603,0
725,"J3QV+54X, NH 766, Kainatty, Kalpetta, Kerala 673122, India",673122,Vythiri,Wayanad,KERALA,-0.0009366635364596559,0.014468814155668636,0
728,"No. 699/2, R.M Brothers Industrial Complex, Palladam Main Rd, Karuppa Gaundanpalayam, Tiruppur, Tamil Nadu 641604, India",641604,Tiruppur,Coimbatore,TAMIL NADU,-0.0839111833056176,0.09527016921397699,0
730,"WJ7X+CF9, Thaha Jct Rd, Peroor, Kerala 691004, India",691004,Kollam,Kollam,KERALA,-0.41541031842855414,0.04929553614511695,0
731,"No 67/1 Mandodhari Garden, East, TIRUPUR 641607, S Periyapalayam, Uthukuli Rd, Tiruppur, Kulathupalayam, Tamil Nadu 638752, India",641607,Tirupur,Coimbatore,TAMIL NADU,-0.08008612570753879,0.09593310959954607,0
734,"VQM7+VRC, Thodupuzha Poomala Road, Alakode, Kerala 685588, India",685588,Thodupuzha,Idukki,KERALA,-0.26947327232538376,0.059985955935637804,0
735,"Koovappady, Koodalapad, Perumbavoor, Koovappady, Kerala 683544, India",683544,Kunnathunad,Ernakulam,KERALA,-0.22447293381954092,0.04208052471655556,0
736,"Pavizham Building, Koovappady, Kerala 683544, India",683544,Kunnathunad,Ernakulam,KERALA,-0.22447293381954092,0.04208052471655556,0
737,"Narendran Polymers, Kalluvathukkal - Chirakkara Rd, Kalluvathukkal, Kerala 691578, India",691578,Kollam,Kollam,KERALA,-0.4261296879811652,0.056702812942298966,0
738,"Narendran Rubbers, P.O, Chandanathope, Kottamkara, Kerala 691014, India",691014,Kollam,Kollam,KERALA,-0.41126050160402794,0.05059079106135577,0
739,"D.No.212, Santhakottauvr Upparapatti Po, Uthangarai Taluk, Krishnagiri Distrcit, Uthangarai, Tamil Nadu 635207, India",635207,Uttangarai,Krishnagiri,TAMIL NADU,0.09587436757670564,0.17061948557963016,0
740,"near, Vazhicherry Rd, Vazhicherry Ward, Sea View Ward, Alappuzha, Kerala 688001, India",688001,Ambalapuzha,Alappuzha,KERALA,-0.32583434330238176,0.030985833317479256,0
741,"S.F.No.108 2A, Road, Vanhiyapuram, Zamin Kottampatti, Tamil Nadu 642001, India",642001,Pollachi,Coimbatore,TAMIL NADU,-0.1513863755727513,0.07625751809189908,0
742,"Tiny Shed 110, Thiru Vi Ka Industrial Estate, Balaji Nagar, Ekkatuthangal, Guindy, Chennai, Tamil Nadu 600032, India",600032,Chennai City Corporation,Chennai,TAMIL NADU,0.3064608432497436,0.27196747617034794,0
743,"40/4607C, Basin Rd, Market, Kochi, Kerala 682035, India",682035,Ernakulam,Ernakulam,KERALA,-0.25281006148834895,0.02786718133854806,0
744,"WJ6W+JPW, Thaha Jct Rd, TKMC.P.O, Peroor, Kollam, Kerala 691004, India",691004,Kollam,Kollam,KERALA,-0.41541031842855414,0.04929553614511695,0
745,"NAVEEN EXIM TRADE ASSOCIATES, 18/1082-D, Manayil, E.S.I ROAD, E.S.I. Rd, Palluruthy, Kochi, Kerala 682006, India",682006,Kochi,Ernakulam,KERALA,-0.2621298749486079,0.027270123055403418,0
746,"12/597, Jawahar Rd, Koovapadam, Chullickal, Kochi, Kerala 682002, India",682002,Kochi,Ernakulam,KERALA,-0.25614113630356034,0.026054744348465164,0
747,"No.60, Rukmini Lakshmipathy Salai, Egmore, Egmore, Chennai, Tamil Nadu 600008, India",600008,,Chennai,TAMIL NADU,0.21483042335039557,0.2790095621916239,0
749,"359,AVINASHI ROAD,BUNGALOW STOP, opp. KANDASWAMY HOSPITAL, Velliyankadu, Tiruppur, Tamil Nadu 641603, India",641603,Tiruppur,Coimbatore,TAMIL NADU,-0.0779661700573292,0.0947980283924137,0
750,"No: 103-A,, Bharathi Nagar 6th St, Olymbus, Rukmani Nagar, Ramanathapuram, Coimbatore, Tamil Nadu 641045, India",641045,Coimbatore South,Coimbatore,TAMIL NADU,-0.09852909377462067,0.07267640001399393,0
751,"CC 6/704, Bazaar Rd, Mattancherry, Kochi, Kerala 682002, India",682002,Kochi,Ernakulam,KERALA,-0.25614113630356034,0.026054744348465164,0
752,"Avinashi, Tamil Nadu 641654, India",641654,,Coimbatore,TAMIL NADU,-0.07211273658542343,0.08790698463255031,0
755,"48, 4th St, SNVS Layout, Kongu Nagar, Tiruppur, Tamil Nadu 641607, India",641607,Tirupur,Coimbatore,TAMIL NADU,-0.08008612570753879,0.09593310959954607,0
758,"23, CSEZ, Kakkanad, Kochi, Kakkanad, Kerala 682030, India",682030,Ernakulam,Ernakulam,KERALA,5.970555054842549,3.6117973957161227,1
759,"Swarnapuri Avenue, 15, Amarjothi Garden, Velampalayam, Tiruppur, Tamil Nadu 641652, India",641652,Tiruppur,Coimbatore,TAMIL NADU,-0.07730412151106443,0.09302365013527163,0
760,"north, 11, 1st Cross Rd, Ramkrishnapuram, Karur, Tamil Nadu 639001, India",639001,Karur,Karur,TAMIL NADU,-0.10452658550065334,0.14109207602111168,0
761,"Nilamel, Kerala, India",682024,Ernakulam,Ernakulam,KERALA,-0.2468210517406997,0.029118876559649207,0
762,"4/5, near Cotton Mill Road, Kumarasamy Nagar, Newbusstand, Tiruppur, Tamil Nadu 641602, India",641602,Tiruppur,Coimbatore,TAMIL NADU,-0.08014266626996422,0.09487462694016671,0
763,"8XP7+XWH, Thazhecode, Kerala 673572, India",673572,Kozhikode,Kozhikode,KERALA,-0.042200981177129296,0.004121943402188624,0
764,"Pongamthanam, Vakathanam, Kerala 686538, India",686538,Changanassery,Kottayam,KERALA,-0.32404074552797124,0.04591922415636241,0
766,"P48M+C2W, Unnamed Road, Vellatheri, Kerala 680604, India",680604,Talappilly,Thrissur,KERALA,-0.14884039078426053,0.016861327532705847,0
768,"641, 602, PN Rd, MGR Nagar, Samundipuram, Tiruppur, Tamil Nadu 638752, India",638752,Erode,Erode,TAMIL NADU,-0.07564001512523506,0.1007564283614068,0
770,"3/537, Ring Road, opp. Container Freight Station, Thirumurugan Poondi, Tiruppur, Avinashi, Tamil Nadu 641652, India",641652,Tiruppur,Coimbatore,TAMIL NADU,-0.07730412151106443,0.09302365013527163,0
771,"35/1698, Vallakkadavu, Thiruvananthapuram, Kerala 695008, India",695008,Thiruvananthapuram,Thiruvananthapuram,KERALA,-0.48028016443350063,0.06890328289927126,0
772,"EP 9/92, 93, Lakshan Veedu Rd, Eramalloor, Ezhupunna, Kerala 688537, India",688537,Cherthala,Alappuzha,KERALA,-0.27663598185551336,0.029289113531195697,0
773,"S.F. NO, 96, Kasipalayam Rd, Mullai Nagar, Nallur, Tiruppur, Tamil Nadu 641606, India",641606,Tiruppur,Coimbatore,TAMIL NADU,-0.08212370397089003,0.09840070014290796,0
775,"455g, Achankulam Rd, Aachankulam Road, Neelambur, Tamil Nadu 641062, India",641062,Coimbatore South,Coimbatore,TAMIL NADU,-0.08889537027391503,0.07787555705977878,0
776,"Industrial Development Plot, Nethaji Road, HG2H+43R, Poovanthuruthu, Kottayam, Kerala 686012, India",686012,Kottayam,Kottayam,KERALA,-0.31794317304059694,0.04300024107956015,0
777,"X745+PW4, Synagogue Ln, Jew Town, Kappalandimukku, Mattancherry, Kochi, Kerala 682002, India",682002,Kochi,Ernakulam,KERALA,-0.25614113630356034,0.026054744348465164,0
778,"39XX+HF7, Nallur, Tiruppur, Tamil Nadu 641606, India",641606,Tiruppur,Coimbatore,TAMIL NADU,-0.08212370397089003,0.09840070014290796,0
780,"29Q4+XG6, Kangarappady, Kochi, Kerala 682021, India",682021,Ernakulam,Ernakulam,KERALA,-0.24525650410589223,0.03118870365286268,0
782,"NO. 365/2, Nochipalayam Rd, AB Nagar, Veerapandi, Tiruppur, Tamil Nadu 641605, India",641605,Kangayam,Erode,TAMIL NADU,-0.08019659230891528,0.09435305136593018,0
786,"A 46/1, KINFRA Integrated Industrial Park, Kanjikode, Kinfra Textile Park, Kerala 678621, India",678621,Palakkad,Palakkad,KERALA,-0.1286100275029237,0.05839624345084872,0
787,"A. S. Road, Kommady, Kaichoondi, Alappuzha, Aryad South, Kerala 688007, India",688007,Ambalapuzh A,Alappuzha,KERALA,-0.3237260036396253,0.03065645612502533,0
789,"PKP GARDEN, Vengamedu, Mangulam, Tiruppur, Tamil Nadu 641603, India",641603,Tiruppur,Coimbatore,TAMIL NADU,-0.0779661700573292,0.0947980283924137,0
790,"Sowdapuram, Tamil Nadu 638008, India",638008,Tiruchengode,Namakkal,TAMIL NADU,-0.037569574835277626,0.12127586132035648,0
792,"SF No.20, Kurinji Nagar, Extension 1st St, Sheriff Colony, Eashwarmoorthy Nagar, Naduppangu Thottam, Tiruppur, Tamil Nadu 641604, India",641604,Tiruppur,Coimbatore,TAMIL NADU,-0.0839111833056176,0.09527016921397699,0
794,"469/1A, Sri Lakshmi Near M.G.R. Nagar, Sirupooluvapatti(p.o), 641603, MGR Nagar, Samundipuram, Tiruppur, Tamil Nadu 641603, India",641603,Tiruppur,Coimbatore,TAMIL NADU,-0.0779661700573292,0.0947980283924137,0
795,"39P9+WXH, KNS Subramaniam Nagar, Tiruppur, Tamil Nadu 641605, India",641605,Kangayam,Erode,TAMIL NADU,-0.08019659230891528,0.09435305136593018,0
799,"Azhicode, Azhikode South, Kerala 670009, India",670009,Kannur,Kannur,KERALA,6.080809095572021,2.0125954849436516,1
800,"paappai exports sf 100 road, Arulpuram, Tiruppur, Tamil Nadu 641605, India",641605,Kangayam,Erode,TAMIL NADU,-0.08019659230891528,0.09435305136593018,0
804,"Valiyapadam, Palakkad, Kerala 678005, India",678005,Palakkad,Palakkad,KERALA,-0.12960876114369257,0.05285612747881972,0
805,"East of NH, Pathirappally, Aikyabharatham, Alappuzha, Kerala 688521, India",688521,Ambalapuzha,Alappuzha,KERALA,-0.31999689745659726,0.030755294671701603,0
806,"Subhash Nagar, Perunthanni, Pazhavangadi, Thiruvananthapuram, Kerala 695024, India",695024,Thiruvananthapuram,Thiruvananthapuram,KERALA,-0.47815789153272215,0.06874163365149834,0
807,"Pandikkad, Kerala 676521, India",676521,Ernad,Malappuram,KERALA,-0.08241128317022353,0.023779884368881087,0
808,"17/34, Kuttoolangadi - Parammal Rd, Azhinjilam, Ramanattukara, Kozhikode, Kerala 673632, India",673632,Ernad,Malappuram,KERALA,6.028751469186376,2.683731512352122,1
810,"4CXG+Q99, Kanjoor, Kerala 683575, India",683575,Aluva,Ernakulam,KERALA,-0.22865838867455585,0.03721045151777685,0
811,"POPPYS PADDING ROAD, near PRAKASH THEATHRE, Chinnakarai, Tiruppur, Murugampalayam, Tamil Nadu 641605, India",641605,Kangayam,Erode,TAMIL NADU,-0.08019659230891528,0.09435305136593018,0
815,"N.H 17, Peruvaram Rd, near KALLARAKKAL TEMPLE, North Paravur, Kerala 683513, India",683513,Paravur,Ernakulam,KERALA,-0.22937054375132443,0.024598620017331794,0
816,"Plassanal Pravithanam Rd, Nariyanganam, Kerala 686579, India",686579,Meenachil,Kottayam,KERALA,-0.29316125110888663,0.057938091840935305,0
817,"Kochi,, V7PW+8X2, Aroor gram panchayat, Kochi, Kerala 688534, India",688534,Cherthla,Alappuzha,KERALA,-0.2690744020321457,0.02923576043838081,0
818,"48MP+RHJ, Shrinagar, Pitchampalayam Pudur, Tiruppur, Tamil Nadu 641603, India",641603,Tiruppur,Coimbatore,TAMIL NADU,-0.0779661700573292,0.0947980283924137,0
819,"NO.313/2 15, MANI ROAD PALLAKATTU THOTTAM, Velampalayam, Tiruppur, A.Thirumuruganpoondi, Tamil Nadu 641652, India",641652,Tiruppur,Coimbatore,TAMIL NADU,-0.07730412151106443,0.09302365013527163,0
820,"652/1, Sir CV Raman, Post, Industrial Estate, Eachanari, Coimbatore, Tamil Nadu 641021, India",641021,Coimbatore South,Coimbatore,TAMIL NADU,-0.10773464729179563,0.0718799432506487,0
821,"Peermade Development Society, Peermade, Azhutha, Kerala 685531, India",685531,Peerumade,Idukki,KERALA,-0.31374939153460923,0.07303667442261633,0
823,"W9RF+FRJ, Thiruvankulam - Chottanikkara Rd, Thrippunithura, Thiruvankulam, Kochi, Kerala 682305, India",682305,Kanayannur,Ernakulam,KERALA,-0.25890047679598555,0.03343554395124147,0
826,"HGQG+4R8, Vellapally Ln, Eerayil Kadavu, Kottayam, Kerala 686004, India",686004,Kottayam,Kottayam,KERALA,-0.3128821590983495,0.04417588777523715,0
827,"11/1J14, Thaneer Pandhal Colony, Post, Thaneerpanthal, Anupparpalayam Pudur, Tiruppur, A.Thirumuruganpoondi, Tamil Nadu 641652, India",641652,Tiruppur,Coimbatore,TAMIL NADU,-0.07730412151106443,0.09302365013527163,0
828,"2896+P66, Goundampalayam Rd, Goundampalayam, Tamil Nadu 641664, India",641664,Palladam,Coimbatore,TAMIL NADU,-0.1002607462152115,0.09096715147773823,0
830,"23-C, POOLUVAPATTI RING ROAD, ANNA STREET, SRI PATHI NAGAR, 15-VELAMPALAYAM, Velampalayam, Tiruppur, A.Thirumuruganpoondi, Tamil Nadu 641652, India",641652,Tiruppur,Coimbatore,TAMIL NADU,-0.07730412151106443,0.09302365013527163,0
831,"Mini Industrial Estate, Manarcad, Kottayam, Manarcadu, Kerala 686019, India",686019,Kottayam,Kottayam,KERALA,-0.3112945840509392,0.04678982556642787,0
832,"IV/40-Thadaparambu, Mulagunnathukavu, Killannur, Kerala 680581, India",680581,Thrissur,Thrissur,KERALA,-0.1626211976366976,0.024186545296559146,0
835,"Q2R2+3M6, Kollayil, Kerala 695609, India",695609,Nedumangad,Thiruvananthapuram,KERALA,-0.4366910852000634,0.0715444247017554,0
836,"Valavanadu, P.O, Kalavoor, Alappuzha, Kerala 688522, India",688522,Ambalapuzha,Alappuzha,KERALA,-0.31437420331411725,0.030342363854114252,0
838,"Ailara, Anchal, Kollam, Ayilara, Kerala 691001, India",691001,Kollam,Kollam,KERALA,-0.4180275983895557,0.04780095093935773,0
839,"AS Road, 688 007, Kommady, Thumpoly, Alappuzha, Aryad South, Kerala 688008, India",688008,Ambalapuzha,Alappuzha,KERALA,-0.32204055058491565,0.03050098478937685,0
840,"Near Primary Health Centre, Koppam, P.O. Vilayur, Palakkad District, Pattambi, Koppam, Kerala 679309, India",679309,Ottappalam,Palakkad,KERALA,-0.11602451963536714,0.021924366954170382,0
842,"No.9, M.P.Nagar, 1st St, Appachi Nagar, Kongu Nagar, Extension, Tiruppur, Tamil Nadu 641607, India",641607,Tirupur,Coimbatore,TAMIL NADU,-0.08008612570753879,0.09593310959954607,0
845,"48MM+V46, State Bank Colony, Gandhinagar, Velampalayam, Tiruppur, Tamil Nadu 641603, India",641603,Tiruppur,Coimbatore,TAMIL NADU,-0.0779661700573292,0.0947980283924137,0
846,"Poilakada Rd, Asramam, Kollam, Kerala 691001, India",691001,Kollam,Kollam,KERALA,-0.4180275983895557,0.04780095093935773,0
847,"GWJX+H7M, Rajagopalapuram, Vedasandur, Tamil Nadu 624710, India",624710,,Dindigul,TAMIL NADU,-0.16787215319967905,0.1337902907450507,0
849,"37B, 3, Sengathurai - Sulur Rd, Sulur, Aiyan Tiruvalluvar Nagar, Tamil Nadu 641402, India",641402,Palladam,Coimbatore,TAMIL NADU,-0.09672869168982033,0.07957446224994578,0
851,"Tirupur sarvodaya sangh Murugampalayam, 38JF+PGR, post, LRG Layout, Iduvampalayam, Tiruppur, Andipalayam, Tamil Nadu 641687, India",641687,Tiruppur,Coimbatore,TAMIL NADU,-0.08362925877539708,0.09273776390048397,0
853,"Kinfra Hi-Tech Park Main Rd, HMT Colony, North Kalamassery, HMT Kalamassery, Kochi, Kerala 683503, India",683503,Kanayannur,Ernakulam,KERALA,-0.24086291280282113,0.03130546587335558,0
857,"R8Q5+8HG, Salem - Kochi Hwy, Chandiroor, Kerala 688535, India",688535,Cherthala,Alappuzha,KERALA,-0.2713785761232395,0.030408067960180588,0
858,"Pallipuram p.o, Pallippuram Thycattussery Road, Pallipuram, Kerala 688541, India",688541,Cherthala,Alappuzha,KERALA,-0.2886268062747816,0.032870670044857116,0
859,"2/240, Kunnathur Road, Virumandampalayam, PO, Chengappalli, Tamil Nadu 638812, India",638812,Perundurai,Erode,TAMIL NADU,-0.06852284329252133,0.09989062331497323,0
860,"R8F4+6MQ, Rd, Neendakara, Eramalloor, Ezhupunna, Kerala 688537, India",688537,Cherthala,Alappuzha,KERALA,-0.27663598185551336,0.029289113531195697,0
861,"Premier Marine Foods, V835+8C7, National Highway 47, Chandiroor, Kochi, Kerala 688535, India",688535,Cherthala,Alappuzha,KERALA,-0.2713785761232395,0.030408067960180588,0
862,"311/4, Pallakattu Thottam, 15 Velampalayam Main Rd, Velampalayam, Tiruppur, A.Thirumuruganpoondi, Tamil Nadu 641652, India",641652,Tiruppur,Coimbatore,TAMIL NADU,-0.07730412151106443,0.09302365013527163,0
863,"119, Venkatasamy Rd W, R.S. Puram, Coimbatore, Tamil Nadu 641002, India",641002,Coimbatore South,Coimbatore,TAMIL NADU,-0.09687348809554108,0.07009170074035175,0
864,"23/1804, Binny Rd, Vishwam Nagar, Palluruthy, Kochi, Kerala 682006, India",682006,Kochi,Ernakulam,KERALA,-0.2621298749486079,0.027270123055403418,0
865,"G6F6+W6X, Machingal Ln, Naikkanal, Thrissur, Kerala 680001, India",680001,Thrissur,Thrissur,KERALA,-0.682297865327683,-9.409307235278478,2
866,"X83H+P32, SH15, Chambakkara, Upasana Nagar, Vyttila, Kochi, Kerala 682304, India",682304,Ernakulam,Ernakulam,KERALA,-0.2589201956658101,0.030575091500509625,0
867,"GW32+P4Q Titanium P.O, Kochuveli Industrial Area, Thiruvananthapuram, Kerala 695021, India",695021,Thiruvananthapuram,Thiruvananthapuram,KERALA,-0.4760762312472069,0.06679963412388391,0
868,"213, Ranga Konar St, Anupperpalayam, Ram Nagar, Coimbatore, Tamil Nadu 641009, India",641009,Coimbatore South,Coimbatore,TAMIL NADU,-0.09641993968126397,0.07083095104113503,0
869,"RBR GARMENTS PRIVATE LIMITED, 177/3A1, PACHANKATTUPALAYAM, Arulpuram, Tiruppur, Tamil Nadu 641605, India",641605,Kangayam,Erode,TAMIL NADU,-0.08019659230891528,0.09435305136593018,0
873,"SF No.252, Kangayam Rd, Nallur, Tiruppur, Tamil Nadu 641606, India",641606,Tiruppur,Coimbatore,TAMIL NADU,-0.08212370397089003,0.09840070014290796,0
875,"VI/35, Jew Town, Kappalandimukku, Mattancherry, Kochi, Kerala 682002, India",682002,Kochi,Ernakulam,KERALA,-0.25614113630356034,0.026054744348465164,0
876,"No: 3, Balaji Street Bypass Road, M.M.C.Colony, MGM Nagar, Avaniyapuram, Tamil Nadu 12, India",688524,Cherthala,Alappuzha,KERALA,-0.2966915384962999,0.031033713294672704,0
877,"18/1, Vagaikulam Srivaikuntam Express Rd, Tannuthu, Tamil Nadu 628851, India",628851,Srivaikuntam,Tuticorin,TAMIL NADU,-0.4374307665888768,0.1310006062476444,0
878,"# 1, 7th St, 1st Street, Kumaranandapuram, Tiruppur, Tamil Nadu 641602, India",641602,Tiruppur,Coimbatore,TAMIL NADU,-0.08014266626996422,0.09487462694016671,0
879,"Aathuppalayam, 582F+VQ2, Aathuppalayam, Tiruppur, Tamil Nadu 641652, India",641652,Tiruppur,Coimbatore,TAMIL NADU,-0.07730412151106443,0.09302365013527163,0
880,"271/CMC 5, Nedumprakkad, P85X+MC8, Cherthala, Kerala 688524, India",688524,Cherthala,Alappuzha,KERALA,-0.2966915384962999,0.031033713294672704,0
881,"4F2Q+7GR, Vattakattupady, Perumbavoor, Kerala 683542, India",683542,Kunnathunad,Ernakulam,KERALA,-0.2322963536884288,0.04020674823769617,0
882,"636006, Kanchi Nagar, Seelanaickenpatti, Salem, Tamil Nadu 636006, India",636006,Salem,Salem,TAMIL NADU,-0.001158884368327313,0.1459924320387589,0
883,"Neerkadavu Beach Rd, Azhikode South, Kerala 670009, India",670009,Kannur,Kannur,KERALA,6.080809095572021,2.0125954849436516,1
884,"30/2A, Nehru Street, Ring Road, Swarnapuri Avenue, Velampalayam, Tiruppur, A.Thirumuruganpoondi, Tamil Nadu 641652, India",641652,Tiruppur,Coimbatore,TAMIL NADU,-0.07730412151106443,0.09302365013527163,0
885,"No. 3/ 33, West, North Chalakudy, Chalakudy, Kerala 680307, India",680307,Mukundapuram Taluk,Thrissur,KERALA,-0.20358688500780323,0.03089015486554665,0
887,"No.45-A, Raakiapalayam road, Kumaran Colony, Ammapalayam, Avinashi, Tamil Nadu 641603, India",641603,Tiruppur,Coimbatore,TAMIL NADU,-0.0779661700573292,0.0947980283924137,0
888,"Beach Road, Valanjavazhy, Kerala 688005, India",688005,Ambalappuzha,Alappuzha,KERALA,-0.33924759409530736,0.03222472013754511,0
890,"Reshmi Industries, Anna Private Industrial Estate, Bharathi Nagar, Coimbatore, Tamil Nadu 641006, India",641006,Coimbatore North,Coimbatore,TAMIL NADU,-0.08946757005052551,0.07310220405569533,0
891,"11.098503, 77.355679, Kumarasamy Colony, Tiruppur, Pudhukkadu, Tamil Nadu 641604, India",641604,Tiruppur,Coimbatore,TAMIL NADU,-0.0839111833056176,0.09527016921397699,0
