Exporter Name,Address,State,pin,2015,2016,2017,2018,2019,2020,2021,2022,2023,Taluk,District,Latitude,Longitude,Cluster,2024,2025,2026,2027,2028
5P HORTIPLEX,"19, 2nd St, Balamurugan Nagar, Anna Nagar Extension, Velachery, Chennai, Tamil Nadu 600042, India",Tamil Nadu,600042,20000,0,0,0,0,0,0,0,0,Chennai City Corporation,Chennai,12.978761057943926,80.19780987663552,2,0.0,6.795621866542143e-11,0.0,0.0,0.0
A.A.NUTS,"WJMW+7F7, Chandanathope, Mamoodu, Kerala 14, India",Kerala,686012,1346288,0,0,0,0,0,0,0,0,Kottayam,Kottayam,9.54856711111111,76.52230786666667,0,0.0,0.0,0.0,0.0,4.455677493666506e-11
A.K. AHAMED MODERAN RICE MILL,"P.O, 40/2, Mannarpalayam Main Rd, Allikuttai, Salem, Tamil Nadu 636017, India",Tamil Nadu,636017,214500,48600,0,24000,24000,144685,194590,452294,1653150,Allikuttai,Salem,11.6719252,78.1929386,1,1653150.0000000016,1653150.0000000007,1653150.0000000042,1653150.0000000063,1653150.0000000012
A.K.R. TEXTILES,"48W5+XQ9, Velampalayam, A.Thirumuruganpoondi, Tamil Nadu 641652, India",Tamil Nadu,641652,441797,361413,679656,568203,197687,14754,0,2841,0,Tiruppur,Coimbatore,11.1398791,77.31429145,1,1.6836599933560083e-09,8.296541909740608e-10,2.8312153841444488e-11,0.0,0.0
A.M.FISHERIES,"98WW+WWQ, Valanjavazhy, Ambalapuzha, Kerala 688005, India",Kerala,688005,1374800,1961480,2034720,3308895,2385049,1697278,2512818,3724210,3315054,Ambalappuzha,Alappuzha,9.40768399,76.351707025,0,3315054.000000016,3315054.000000001,3315054.00000001,3315054.000000031,3315054.0000000037
A.M.S. TRADING COMPANY,"AMS COMPLEX, VK KADAVU, Road, Nhangattiri, Pattambi, Kerala 679311, India",Kerala,679311,202834,156121,121570,26830,0,14705,0,0,0,Nhangattiri,Pattambi,10.7996557,76.0688529,3,0.0,1.2965370025964267e-10,0.0,0.0,0.0
A.N.P.APPARELS,"48F6+985, MGR Nagar, Sirupooluvapatti, Tiruppur, Tamil Nadu 641687, India",Tamil Nadu,641687,2721,3569,4421,0,0,0,63746,124261,37999,Tiruppur,Coimbatore,11.0980518625,77.309765225,1,37998.99999999895,37998.99999999959,37998.99999999933,37998.999999998094,37998.999999999454
A.P. GLOBAL MARKETING,"1/126-E, near Pollachi, Devanurpudur, Tamil Nadu 642207, India",Tamil Nadu,642207,56000,0,55900,0,27000,0,0,0,0,Udaamalpet,Coimbatore,10.544403,77.09328762727273,1,0.0,1.6017926588734243e-10,0.0,0.0,0.0
A.P.ENGINEERS,"Ho, Sipcot Industrial Growth Centre, Plot No-C2, near Water Tank, Perundurai, Tamil Nadu 638052, India",Tamil Nadu,638052,139924,17140,12617,197771,293091,36020,118131,18940,451180,Erode,Erode,11.28118388372093,77.58956259534884,1,451180.0000000001,451179.9999999993,451180.0000000001,451180.0000000008,451180.0000000001
A.S.K. APPARELS,"11/1, Periyar Nagar, West, Karur, Tamil Nadu 639002, India",Tamil Nadu,639002,196727,157566,87995,127016,210735,38212,0,0,0,Aravakurichi,Karur,10.96040589130435,78.06453304347826,1,0.0,0.0,0.0,0.0,0.0
A.S.M.KNITS,"5, Singaravelu St, T. Nagar, Chennai, Tamil Nadu 600017, India",Tamil Nadu,600017,854,5274,0,0,0,0,0,337,4701,Chennai,Chennai,13.042568160810813,80.23459210743243,2,4700.999999998832,4700.999999999503,4700.999999999196,4700.9999999977945,4700.999999999468
AARGEE ASSOCIATES,"MINI INDUSTRIAL ESTATE, PLOT NO .5, near POLICE STATION, Manarcadu, Kerala 686019, India",Kerala,686019,793,0,0,0,0,0,0,0,0,Kottayam,Kottayam,9.592533289090907,76.58230555090908,0,0.0,8.654405480745659e-11,0.0,0.0,0.0
AASHA BIOCHEM,"Chorode Panchayath, Chorode, Vatakara, Kerala 673104, India",Kerala,673104,11002,17868,19680,15760,7350,0,4357,252,0,Vadakara,Kozhikode,11.604201301538462,75.60635570307693,3,0.0,8.156795206995958e-11,0.0,0.0,0.0
AAZRA MARINE INDUSTRIES,"Bharath Sea Foods Complex, Chandiroor, Alleppey, Kerala 688547, India",Kerala,688547,359290,154585,164533,374660,48000,0,0,0,0,Chandiroor,Alappuzha,9.765011083333333,76.36738138333334,0,0.0,0.0,0.0,0.0,0.0
ABAD FISHERIES,"Kochangadi, Chullickal, Kochi, Kerala 682002, India",Kerala,682002,5109702,5314820,5244604,6075897,6054924,3769618,4065985,4882866,5722081,Kochi,Ernakulam,9.957255232894736,76.25402236842105,0,5722081.000000035,5722081.000000004,5722081.000000023,5722081.0000000615,5722081.000000009
ABIRAMI EXPORTS,"Shop No.424, Thadagam Main Rd, Near Milk Society Bus Stop, Near Milk Company, R.S. Puram, Coimbatore, Tamil Nadu 641002, India",Tamil Nadu,641002,393,341,0,0,7200,0,0,0,0,Coimbatore South,Coimbatore,11.010469648529412,76.95122688088236,1,0.0,8.053835014562186e-11,0.0,0.0,0.0
ABISHEK EXPORTS,"No.9/76F, South Neervakuzhi, Kanyakumari, Palappallam, Tamil Nadu 629159, India",Tamil Nadu,629159,566035,382409,0,151590,249640,427361,95800,29100,28500,Kalkulam,Kanyakumari,8.1852759,77.2497986,0,28499.99999999897,28499.999999998006,28499.99999999945,28499.99999999941,28499.99999999982
ABM MARINE PRODUCTS,"19/2084-E, Nambiapuram Rd, Palluruthy, Kochi, Kerala 682006, India",Kerala,682006,461980,352496,549490,1256905,1789051,1459668,2476123,2617996,2059244,Kochi,Ernakulam,9.917652551851852,76.27326455925926,0,2059244.0000000088,2059243.9999999995,2059244.000000005,2059244.0000000177,2059244.0000000016
ACCELERATED FREEZE DRYING CO LTD.,"Accelerated Freeze Drying Co. Ltd. (AFDC, R7CX+HQ6 P.O, Eramallur Ezhupunna Rd, Eramalloor, Ezhupunna, Kerala 688537, India",Kerala,688537,237764,397922,497486,1190201,1061663,655166,892804,1604885,1791322,Cherthala,Alappuzha,9.82172572,76.30522974,0,1791322.000000006,1791322.0000000002,1791322.0000000035,1791322.0000000123,1791322.0000000014
ACTIVE CHAR PRODUCTS P.LTD.,"Binanipuram, Edayar, Kochi, Kerala 683502, India",Kerala,683502,2458952,2065846,1618043,1164078,2760015,3556055,3526565,4538145,4504002,Paravur,Ernakulam,10.087692555555556,76.30506273333334,0,4504002.000000018,4504002.000000002,4504002.000000018,4504002.000000037,4504002.000000005
ADIL TEXTILES PVT LTD,"Mangalam, Tamil Nadu 641663, India",Tamil Nadu,641663,536432,208759,670153,113005,99740,101161,722293,254500,1062411,Palladam,Coimbatore,11.097379925,77.26562055,1,1062411.0000000033,1062411.000000002,1062411.0000000035,1062411.0000000051,1062411.0000000012
ADITI CREATION,"40, South St, Pethi Chetti Puram, Rayapuram, Tiruppur, Tamil Nadu 641601, India",Tamil Nadu,641601,11599,4508,15642,0,0,0,0,26221,6242,Avinashi,Coimbatore,11.096039183333334,77.27852751666666,1,6241.999999998913,6241.99999999959,6241.999999999255,6241.999999997828,6241.999999999456
ADORN GLASS ART,"Near Pampady Gramapanchayth, NH- 220, Pampady Road, Pampady, Kottayam, Pampady, Kerala 686502, India",Kerala,686502,4500,0,0,0,0,0,0,0,0,Kottayam,Kottayam,9.581621149411763,76.63691744941177,0,0.0,8.295655501162569e-11,0.0,0.0,0.0
ADRASH KNITWEAR,"No: 1/H, Avinashi - Tiruppur Rd, near BBC Petrol Pump, Thaneerpanthal, Anupparpalayam Pudur, Tiruppur, A.Thirumuruganpoondi, Tamil Nadu 641652, India",Tamil Nadu,641652,615,14908,4805,862,193,461,0,0,688,Tiruppur,Coimbatore,11.1398791,77.31429145,1,687.9999999988255,687.9999999995083,687.9999999992067,687.999999997791,687.9999999994692
AGAPPE DIAGNOSTICS LTD.,"Agappe Hills, Pattimattom PO, Kochi, Kerala 683562, India",Kerala,683562,1185,8412,9937,20185,72695,107682,139982,92458,167822,Aluva,Ernakulam,10.034164772289158,76.42900358072289,0,167821.99999999933,167821.99999999953,167821.99999999965,167821.999999999,167821.99999999962
AGARAM KNITTERS,"No 4/571, Palladam Rd, Veerapandi, Tiruppur, Tamil Nadu 641605, India",Tamil Nadu,641605,7904,0,22424,0,0,0,0,0,0,Kangayam,Erode,11.1207516,77.335338875,1,0.0,1.4019248843241176e-10,0.0,0.0,0.0
AGNI APPARELS,"60, Avinashi - Tiruppur Rd, Kumar Nagar, Park Avenue, Tiruppur, Tamil Nadu 641603, India",Tamil Nadu,641603,49637,68277,81165,32722,91338,20678,66683,17607,14328,Tiruppur,Coimbatore,11.135501066666668,77.34238386666667,1,14327.999999999223,14327.999999999638,14327.999999999443,14327.99999999824,14327.999999999554
AGRO BROTHERS COIR CO.,"VCMC+GH, Veppampatti, Tamil Nadu 625534, India",Tamil Nadu,625534,622620,655850,588940,756580,669685,518743,1158989,349734,213095,Bodinayakanur,Theni,9.964452433333332,77.46669595,0,213095.0000000022,213094.9999999985,213095.00000000012,213095.0000000039,213095.00000000035
AHILL KNIT EXPORTS,"Shed No. 30, Netaji Apparel Park New, Tiruppur, Tamil Nadu 641666, India",Tamil Nadu,641666,1831,110085,54555,22507,21271,14596,9670,22045,12922,Tirupur,Coimbatore,11.197693457142856,77.3648192,1,12921.9999999989,12921.999999999593,12921.999999999449,12921.99999999808,12921.999999999527
AHLL KNIT EXPORTS\,"Shed No. 30, Netaji Apparel Park New, Tiruppur, Tamil Nadu 641666, India",Tamil Nadu,641666,992,0,0,0,0,0,0,0,0,Tirupur,Coimbatore,11.197693457142856,77.3648192,1,0.0,8.635146984404404e-11,0.0,0.0,0.0
AKAY FLAVOURS & AROMATICS LTD.,"Akanadu, Mudakuzha P.O, Kurichilakodu, Akanad, Kochi, Vengoor West, Kerala 683546, India",Kerala,683546,1386051,1350224,1173974,1052759,1091409,746178,0,0,0,Kunnathunad,Ernakulam,10.1428569,76.52744881481482,0,3.8959265701363665e-09,0.0,1.6308831965522656e-09,3.610684088041333e-09,7.309582048578599e-10
AKRUTHI APPARELS,"2/140, Kovil Street, Mangalam Rd, S R Nagar, Tiruppur, Tamil Nadu 641687, India",Tamil Nadu,641687,453889,818242,785932,1014895,977365,330628,709925,549448,578457,Tiruppur,Coimbatore,11.0980518625,77.309765225,1,578457.0000000037,578456.9999999999,578457.0000000016,578457.0000000059,578457.0000000007
AKSHARA GARMENTS,"SF No. 12/3,4,5 - 13/1 - 21/1 , Sasthiri Nagar, Erangattur, Mettupalayam, Sathyamangalam - Mettupalayam Main Rd, South Rangasamuthram, Sathyamangalam, Tamil Nadu 638402, India",Tamil Nadu,638402,2032,1261,4764,0,0,0,0,0,0,Sathyamangalam,Erode,11.477104075,77.231386425,1,0.0,9.806469493361339e-11,0.0,0.0,0.0
ALAIJA RUBBER FACTORY,"5R6W+2FJ, Kashayapadi, Kozhikode, Feroke, Kerala 673631, India",Kerala,673631,14173,7520,7520,7776,15536,7344,7344,0,7344,Kozhikode,Kozhikode,11.175759547619048,75.84226028095239,3,7343.999999998898,7343.999999999499,7343.999999999208,7343.999999997861,7343.999999999482
ALAN TECH INDISTRIAL SOLUTIONS,"Mookkannoor Ezhattumugham Rd, Mookkannoor, Kerala 683577, India",Kerala,683577,29970,36866,4083,15260,23660,15818,9775,18465,34075,Aluva,Ernakulam,10.236160537931037,76.41592248045977,0,34074.999999998894,34074.999999999454,34074.9999999993,34074.99999999806,34074.99999999953
ALBERTS ARTS COLLECTIONS,"X746+P3V, Jew Town Rd, Jew Town, Kappalandimukku, Mattancherry, Kochi, Kerala 682002, India",Kerala,682002,75,300,90,0,100,0,0,0,0,Kochi,Ernakulam,9.957255232894736,76.25402236842105,0,0.0,8.736028059681287e-11,0.0,0.0,0.0
ALEX MACHINES,"P838+CP5, Kottaram Jn. Rd, Kadakkarappally, Kerala 688529, India",Kerala,688529,9500,0,0,0,0,0,0,0,0,Cherthala,Alappuzha,9.705020973333331,76.3096675088889,0,0.0,7.811773683543077e-11,0.0,0.0,0.0
ALLAKKAT INTERNATIONAL,"P.O, Kommady, Thumpoly, Alappuzha, Aryad South, Kerala 688008, India",Kerala,688008,7312,25848,20712,108918,364857,267992,185969,145967,246893,Ambalapuzha,Alappuzha,9.521471733333334,76.3244164,0,246893.00000000003,246892.9999999993,246892.9999999998,246893.0000000001,246892.9999999998
ALLEPPEY BALERS P.LTD.,"Alappuzha, Kerala, India",Kerala,682002,5312,0,0,0,27758,0,0,0,0,Kochi,Ernakulam,9.957255232894736,76.25402236842105,0,0.0,5.767062760140524e-11,0.0,0.0,0.0
ALLEPPEY CO. LTD.,"Alappuzha, Kerala, India",Kerala,688534,4420479,6209642,5164523,5699132,5264683,4868005,5257371,3189816,2040828,Cherthla,Alappuzha,9.871729377142858,76.30438504,0,2040828.0000000263,2040827.9999999977,2040828.000000013,2040828.000000045,2040828.0000000065
ALPHONSA CASHEW INDUSTRIES,"Puthoor, Kerala 691507, India",Kerala,691507,1878064,1194190,1240144,1312388,1547128,902088,943792,1019626,1298604,Kottarakkara,Kollam,9.043139252830189,76.7161006773585,0,1298604.000000008,1298604.0000000002,1298604.0000000051,1298604.0000000128,1298604.000000002
AMAZING EXPORT CORPORATION,"SF.No:105,Valayankadu,P.Vadugapalayam Post, Palladam-Dharapuram Rd, Palladam, Tamil Nadu 641664, India",Tamil Nadu,641664,256,1506,138,1960,92,6514,25499,17316,0,Palladam,Coimbatore,10.98807019,77.28173242999999,1,0.0,6.171712341649137e-11,0.0,0.0,0.0
AMBIKA COTTON MILLS LTD.,"15, Valluvar St, Sivananda Colony, Tatabad, Coimbatore, Tamil Nadu 641012, India",Tamil Nadu,641012,19262,0,0,0,0,443848,171715,1443076,156496,Coimbatore South,Coimbatore,11.020646936,76.962853908,1,156495.99999999985,156496.0000000003,156496.0000000003,156495.99999999968,156495.9999999988
ANAND TEXTILES,"W8GX+FX8 Moopanpara, Valapattanam, Kerala 670011, India",Kerala,670011,64532,39979,35548,12025,12925,5462,17344,23519,8321,Kannur,Kannur,11.911786729166668,75.36011997916667,3,8320.999999998967,8320.999999999554,8320.999999999329,8320.999999997965,8320.99999999949
ANANDHA FABRICATIONS(CBE)P.LTD.,"Thudiyalur Rd, near Indian Oil Petrol Bunk, Saravanampatti, Coimbatore, Tamil Nadu 641006, India",Tamil Nadu,641006,1750,0,0,0,0,0,0,0,0,Coimbatore North,Coimbatore,11.059443936363635,76.99888995,1,0.0,8.56179050085329e-11,0.0,0.0,0.0
ANASWARA OFFSET P.LTD,"Edappally Raghavan Pillai Road, Junction, Perandoor, Elamakkara, Kochi, Kerala 682026, India",Kerala,682026,5240,1787,3065,1023,6944,5589,2133,124,8580,Ernakulam,Ernakulam,10.01621266875,76.288820209375,0,8579.999999998874,8579.999999999513,8579.99999999921,8579.99999999783,8579.999999999474
ANCHUTHARA FOOD PRODUCTS,"MLA Rd, Poochakkal, Cherthala, Panavally, Kerala 688526, India",Kerala,688526,125309,148841,235584,133054,23109,194717,97182,76726,66718,Cherthala,Alappuzha,9.806103366981132,76.35243924716981,0,66717.99999999993,66718.00000000003,66717.99999999987,66717.99999999901,66717.9999999996
ANCHUTHENGIL AGRI SUPPLY,"Anchuthengu, Kerala, India",Kerala,686012,14663,6341,20036,18192,39140,36685,21334,33294,25039,Kottayam,Kottayam,9.54856711111111,76.52230786666667,0,25038.99999999905,25038.99999999955,25038.999999999283,25038.99999999805,25038.99999999949
ANGEL CASHEWS,"2QHX+CR5, Thalavoor, Kerala 691560, India",Kerala,691560,15876,0,0,0,0,0,0,0,0,Kottarakara,Kollam,9.04378430952381,76.78092363809523,0,0.0,7.1947275897147e-11,0.0,0.0,0.0
ANJALA EXPORTS,"VIP Nagar Pandian Nagar East Tiruppur, PN Rd, Mummoorthi Nagar, Tiruppur, Tamil Nadu 641602, India",Tamil Nadu,641602,3604,0,0,0,0,2180,0,0,4515,Tiruppur,Coimbatore,11.121108205263155,77.34359659473684,1,4514.999999998846,4514.999999999506,4514.999999999191,4514.999999997791,4514.999999999466
ANJIPARAMBIL ASSOCIATES,"Parambithara Rd, Panampilly Nagar, Kochi, Kerala 682036, India",Kerala,682036,844,0,0,0,0,0,0,0,0,Ernakulam,Ernakulam,9.959980295833333,76.29498357083334,0,0.0,8.649469886205941e-11,0.0,0.0,0.0
ANTHONY GARMENTS,"No. 3, Athimarathottam, Sirupooluvapatti, Tiruppur, Tamil Nadu 641603, India",Tamil Nadu,641603,32597,56582,18048,0,0,0,10400,0,0,Tiruppur,Coimbatore,11.135501066666668,77.34238386666667,1,0.0,8.785759200163664e-11,0.0,0.0,0.0
ANUGRAHA FASHION MILL P.LTD.,"Garmenting Division Unit-IINO.932 Dharapuram RoadVattamalai, PO, A.P, Pudur, Kangeyam, Tamil Nadu 638701, India",Tamil Nadu,638701,3675,0,43986,0,0,19374,60812,257663,606151,Kangayam,Erode,11.008906164814816,77.55643352407408,1,606151.0,606151.0000000005,606151.000000001,606151.0000000009,606151.0
ANUSAM APPARELS,"Vengamedu, Poyampalayam, Chettipalayam, Tiruppur, Tamil Nadu 641602, India",Tamil Nadu,641602,35831,28931,0,13624,36133,0,65182,54471,61687,Tiruppur,Coimbatore,11.121108205263155,77.34359659473684,1,61686.99999999895,61686.99999999943,61686.99999999937,61686.99999999826,61686.99999999954
AQUA GENO EXIM,"V872+GG9, Keltron Rd, Aroor gram panchayat, Kochi, Kerala 688534, India",Kerala,688534,869736,1312747,1616572,1407420,586870,1100174,2182268,1430007,903955,Cherthla,Alappuzha,9.871729377142858,76.30438504,0,903955.0000000072,903955.0000000012,903955.0000000044,903955.000000012,903955.0000000009
AQUA SEAFOOD(INDIA)P.LTD.,"22/1177, Aroor - Thoppumpady Rd, N.H. 47, Edakochi, Kochi, Kerala 682010, India",Kerala,682010,1648460,1512526,110000,0,0,28000,0,67159,26000,Kochi,Ernakulam,9.9107678,76.29057865833333,0,25999.999999996595,25999.999999996937,26000.000000001583,26000.00000000013,26000.000000000397
ARANI EXPORTS,"Arani, Tamil Nadu, India",Tamil Nadu,682024,915,0,0,0,570,0,0,0,1394,Ernakulam,Ernakulam,10.01888763298969,76.30253450412371,0,1393.999999998839,1393.9999999995057,1393.9999999991803,1393.9999999977729,1393.9999999994625
ARASAN ALUMINIUM INDUSTRIES,"4, Thiruthangal Rd, Thiruthangal, Sivakasi, Tamil Nadu 626123, India",Tamil Nadu,626123,13200,111969,85609,88027,0,0,19088,0,0,Sivakasi,Virudhunagar,9.43491624736842,77.79007205263159,0,0.0,7.563061746832371e-11,0.0,0.0,0.0
ARBEE AGENCIES,"Thattaveli Palam, Velloor, Kerala 686605, India",Kerala,686605,93440,60160,226843,5742,0,0,0,0,0,Vaikom,Kottayam,9.795920142424242,76.44080179242424,0,0.0,5.895796478240546e-10,0.0,0.0,0.0
AREM FASHIONS,"S.F.no 56, Dhanas industrial complex Kasipalayam, Main Rd, Kallangadu, Nallur, Tiruppur, Tamil Nadu 641606, India",Tamil Nadu,641606,1145,4658,3986,0,0,0,0,0,10495,Tiruppur,Coimbatore,11.108007883333332,77.3994223,1,10494.99999999886,10494.999999999529,10494.999999999223,10494.999999997824,10494.999999999474
ARMSTRONG KNITTING MILLS (P) LTD.,"61-C, Saminathapuram 2nd street, Anupparpalayam, Velampalayam, Tiruppur, Tamil Nadu 641652, India",Tamil Nadu,641652,2881,6820,19611,28766,177615,116227,561146,1211288,996512,Tiruppur,Coimbatore,11.1398791,77.31429145,1,996512.0000000012,996512.0000000008,996512.0000000024,996512.0000000042,996512.0000000001
AROMATO EXIM P.LTD.,"458X+7CV, Olavara - Payyanur Rd, Thrikaripur, Kerala 670307, India",Kerala,670307,14402,24000,0,0,0,0,0,0,0,Taliparamba,Kannur,12.131190267272729,75.2246940030303,3,0.0,7.070922423638888e-11,0.0,0.0,0.0
ARROW KNITS,"8/823, Vigneshwara Nagar, Pooluvapatti, Tiruppur, Tamil Nadu 641603, India",Tamil Nadu,641603,3509,0,0,4486,0,0,0,0,377,Tiruppur,Coimbatore,11.135501066666668,77.34238386666667,1,376.9999999988405,376.9999999994941,376.9999999991657,376.99999999777344,376.99999999946164
ASHJOE COLD CHAIN ESTABLISHMENT,"Road, Aroor gram panchayat, Kochi, Kerala 688534, India",Kerala,688534,1883,0,0,0,0,0,0,0,0,Cherthla,Alappuzha,9.871729377142858,76.30438504,0,0.0,8.548919244504609e-11,0.0,0.0,0.0
ASMA RUBBER PRODUCTS P. LTD.,"Plot No. 39-B, CSEZ, Kakkanad, Kochi, Kakkanad, Kerala 682037, India",Kerala,682037,3425,0,24994,45713,128215,243965,280246,393150,346467,Ernakulam,Ernakulam,9.997384706451612,76.34072476129032,0,346466.99999999994,346466.99999999977,346467.00000000023,346467.0000000004,346466.99999999965
ASSOCIATED TRADERS,"14, Mannar St, T. Nagar, Chennai, Tamil Nadu 600017, India",Tamil Nadu,600017,18195,22661,12759,22992,25687,53849,65764,114883,70736,Chennai,Chennai,13.042568160810813,80.23459210743243,2,70735.99999999908,70735.99999999953,70735.99999999943,70735.9999999984,70735.9999999995
ASWATHI EXPORTS,"48Q6+8WF, Velampalayam, Tiruppur, A.Thirumuruganpoondi, Tamil Nadu 641652, India",Tamil Nadu,641652,1655,0,0,0,0,0,0,0,0,Tiruppur,Coimbatore,11.1398791,77.31429145,1,0.0,8.57098425538806e-11,0.0,0.0,0.0
ASWATHY ENGINEERING WORKS,"Mukkam - Thiruvambady Rd, Agastiamuzhi, Mukkam, Thondimmal, Kerala 673582, India",Kerala,673582,3750,3709,0,2750,0,0,0,0,0,Kozhikode,Kozhikode,11.364234452173912,75.96050992608696,3,0.0,7.706689802050382e-11,0.0,0.0,0.0
ASWIN ASSOCIATES,"XIII/831, Vikas Rd, Karuvelipady, Thoppumpady, Kochi, Kerala 682005, India",Kerala,682005,544968,926562,1789010,2492715,1925280,1535311,2346347,2176675,1451891,Kochi,Ernakulam,9.940253061111113,76.25960161388889,0,1451891.0000000126,1451891.000000001,1451891.0000000033,1451891.000000018,1451891.0000000016
ATCHAYA EXPORTS,"3A, Mariamman Koil St, Panruti, Thorapadi, Tamil Nadu 607106, India",Tamil Nadu,607106,6265,0,0,0,0,0,0,2102,0,Panruti,Cuddalore,11.76015140909091,79.55037046363637,2,0.0,8.239906401448676e-11,0.0,0.0,0.0
ATCHERRA IMPEX,"14B,PUTHUTHOTTAM, SBI Colony, NARAYANASWAMY NAGAR, Gandhinagar, Velampalayam, Tiruppur, Tamil Nadu 641603, India",Tamil Nadu,641603,14046,16099,29339,17101,17537,8741,1545,25134,28201,Tiruppur,Coimbatore,11.135501066666668,77.34238386666667,1,28200.99999999902,28200.99999999961,28200.999999999327,28200.999999998006,28200.999999999494
ATHAVAN CLOTHING COMPANY,"10/588E, Acc house mullai nagar Extn, Ganapathipalayam Rd, Chinnakarai, Tiruppur, Tamil Nadu 641605, India",Tamil Nadu,641605,24088,40084,52535,26320,0,18418,808,0,0,Kangayam,Erode,11.1207516,77.335338875,1,0.0,1.2657249128249826e-10,0.0,0.0,0.0
ATLANTIC CARE CHEMICALS,"Industrial development plot, Punnapra North, Alappuzha, Kerala 688003, India",Kerala,688003,1197608,1122836,1410666,919697,1150553,829772,1163489,1556112,1200961,Ambalapuzha,Alappuzha,9.468575348387096,76.33827430967742,0,1200961.0000000077,1200961.0000000023,1200961.000000006,1200961.0000000116,1200961.0000000012
ATLAS EXPORT ENTERPRISES,"V2P6+G5W, Thalapatti, Tamil Nadu 639003, India",Tamil Nadu,639003,55448,952,79684,11085,16562,29009,29135,51774,20233,Karur,Karur,10.9371391,78.0401658,1,20232.999999999287,20232.99999999984,20232.99999999945,20232.999999998065,20232.99999999947
ATLAS MACHINE TOOLS,"Atlas House Kunnathurmedu, Menna Nagar Colony, Kalmandapam, Palakkad, Kerala 678013, India",Kerala,678013,25,4319,148,1021,0,0,0,0,247,Palakkad,Palakkad,10.766884786666663,76.66394232666667,1,246.99999999882792,246.9999999994989,246.9999999991797,246.99999999777253,246.99999999946326
AVIRAM KNITTERS,"2nd Street, No. 34-A, PN Rd, Kamaraj Nagar, Tiruppur, Tamil Nadu 641602, India",Tamil Nadu,641602,73982,30164,36356,23745,1474,116144,169945,287528,67214,Tiruppur,Coimbatore,11.121108205263155,77.34359659473684,1,67213.99999999924,67213.99999999959,67213.99999999955,67213.99999999865,67213.99999999943
AVLA NETTOS EXPORTS,"WGJW+H82, Neendakara - Chinnakkada Rd, Sakthikulangara North, Kollam, Kerala 691581, India",Kerala,691581,1042821,1546705,1663803,2583904,3417441,1817234,2678875,3180858,2720672,Kollam,Kollam,8.928226436363635,76.54678488181818,0,2720672.000000015,2720672.0,2720672.000000008,2720672.000000027,2720672.0000000033
AWA EXPORTS,"T2,Bharat city arcade, Vathukara St, Annamalai Nagar, Woraiyur, Tiruchirappalli, Tamil Nadu 620003, India",Tamil Nadu,620003,70490,27300,0,0,0,0,0,0,0,Tiruchirappalli,Tiruchirappalli,10.799158811111113,78.68337603333333,1,0.0,1.6062923864978454e-11,0.0,0.0,0.0
AYKARA PHARMACEUTICALS,"2M96+9MP, Moonnumukku - Uppoodu Road, Mathilakom, Kizhakkekallada, Kerala 691502, India",Kerala,691502,320,980,0,1210,376,0,0,0,0,Kollam,Kollam,9.008392784545457,76.65603456545455,0,0.0,8.383150834150767e-11,0.0,0.0,0.0
AYUR PANCHAKARMA EQUIPMENTS,"Velichappat, 3/217 B, Poickattussery, Chengamanad PO Ernakulam District Nedumbassery kurumaseri Road 589P+397, Aluva - Mala Rd, Kerala 683578, Aluva, Kerala 683585, India",Kerala,683578,1870,755,0,550,2460,500,5454,0,0,Paravur,Ernakulam,10.155197839473685,76.30713587631578,0,0.0,7.618487104442065e-11,0.0,0.0,0.0
B.N.T. CONNECTIONS,"126, Nelson Manickam Rd, Collectorate Colony, Aminjikarai, Chennai, Tamil Nadu 600094, India",Tamil Nadu,600094,15808,82596,73715,7944,0,587,0,0,5318,Chennai,Chennai,13.063181717391304,80.2239403826087,2,5317.999999998983,5317.999999999736,5317.99999999947,5317.999999997963,5317.999999999511
B.S.RUBBERS,"IX/45-N INDUSTRIAL DEVELOPMENT PLOT, Poovanthuruthu, Kerala 686012, India",Kerala,686012,153709,259888,289433,554904,652883,567040,770860,688116,400656,Kottayam,Kottayam,9.54856711111111,76.52230786666667,0,400656.000000002,400655.9999999991,400656.0000000002,400656.0000000033,400656.0000000001
BABIN TECHNOLOGIES,"5V2R+RX3, Kakkanchery, Chelambra, Kerala 673636, India",Kerala,673636,1912,1593,7417,9321,0,0,10508,4131,680,Tirurangadi,Malappuram,11.118472538297873,75.8919613468085,3,679.9999999988723,679.9999999995124,679.9999999991737,679.9999999978041,679.9999999994626
BABU COIR WORKS,"Pathirappally Omanappuzha Road, Pattukalam, Alappuzha, Kerala 688522, India",Kerala,688522,952546,788299,930585,1134556,956257,1165199,1539315,1006202,1314481,Ambalapuzha,Alappuzha,9.572168202777778,76.32190507222222,0,1314481.0000000063,1314480.9999999998,1314481.0000000035,1314481.0000000116,1314481.0000000016
BABU ENGINEERING,"3B, Kamban Street, 1st St N, Ramakrishnapuram, Saravanampatti, Siranandha Puram, Coimbatore, Tamil Nadu 641035, India",Tamil Nadu,641035,3750,0,0,0,0,0,0,0,0,Coimbatore North,Coimbatore,11.075230651851852,77.00013037037037,1,0.0,8.368237773805491e-11,0.0,0.0,0.0
BABY MARINE EASTERN EXPORTS,"Plot No. C-77-A2, C-77B1, Sipcot Industrial Comlex, Madathur, Udumalapetai, Madathur, Thoothukudi, Tamil Nadu 628008, India",Tamil Nadu,628008,1575097,883159,683471,1139398,431416,205675,115997,43800,50000,Thoothukkudi,Tuticorin,8.901466286842105,78.11534920263158,0,50000.00000000183,49999.99999999803,49999.99999999948,50000.00000000216,50000.00000000035
BABY MARINE INTERNATIONAL,"Thoppumpady, W7M8+59J, Thoppumpady, Kochi, Kerala 682005, India",Kerala,682005,1327811,1285102,1793083,1438568,867302,579247,436163,384500,1422596,Kochi,Ernakulam,9.940253061111113,76.25960161388889,0,1422596.0000000088,1422596.0000000033,1422596.0000000063,1422596.000000012,1422596.0000000019
BAFNA ENTERPRISES,"V798+RQR, puthenthode, Kannamaly, Kochi, Kerala 682008, India",Kerala,682008,2015672,1150357,1137553,624548,1190291,1361656,1774016,1375171,1138612,Kochi,Ernakulam,9.869597658064515,76.26596289354838,0,1138612.0000000068,1138612.0000000002,1138612.000000006,1138612.000000012,1138612.0000000014
BAGAVATHI APPARELS,"5, Angeripalayam Main Road, Jeeva Colony, Gandhi Nagar (PO), SBI Colony, Gandhinagar, Velampalayam, Titupur, Tiruppur, Tamil Nadu 641603, India",Tamil Nadu,641603,6835,18998,0,0,0,0,0,0,0,Tiruppur,Coimbatore,11.135501066666668,77.34238386666667,1,0.0,7.858762522115978e-11,0.0,0.0,0.0
BAKKHUS MERLOT INDUSTRIES,"D-47&48, Municipal Shopping Complex, AM Rd, Perumbavoor, Kerala 683542, India",Kerala,683542,20300,0,0,0,0,0,0,0,0,Kunnathunad,Ernakulam,10.114937405454544,76.47808056363637,0,0.0,6.766588957484973e-11,0.0,0.0,0.0
BALAKRISHNA ENGINEERING,"1/93, Mylampatti Post, near, Chinnampalayam, Coimbatore, Mylampatti, Tamil Nadu 641062, India",Tamil Nadu,641062,34895,9811,0,0,0,8055,2075,0,0,Coimbatore South,Coimbatore,11.0632278125,77.0744629125,1,0.0,4.3999245552752097e-11,0.0,0.0,0.0
BALU ENGINEERING INDUSTRIES,"2XHP+FRH, Avarampalayam, Illango Nagar, Coimbatore, Tamil Nadu 641006, India",Tamil Nadu,641006,5828,0,0,0,0,0,9800,0,0,Coimbatore North,Coimbatore,11.059443936363635,76.99888995,1,0.0,7.192442241826765e-11,0.0,0.0,0.0
BANAN GLOBAL TRADING,"Room no.477-C, Gandhinagar West Kechery, Thalakottukara ,India.pin-680501, Kechery, Thalakottukara, Kerala 680501, India",Kerala,680501,157421,11842,51301,8276,151968,92358,189167,54176,82690,Talappilly,Thrissur,10.63004167027027,76.12065817297298,3,82689.99999999949,82689.99999999946,82689.99999999956,82689.99999999878,82689.99999999965
BASCO FOODS (INDIA )PVT. LTD ,"29Q2+WHJ, Edappally - Pukkattupady Rd, Kollamkudimugal, Kangarappady, Kochi, Kerala 682021, India",Kerala,682021,175252,242810,306980,92699,123910,114447,89410,244400,41550,Ernakulam,Ernakulam,10.029233765060242,76.3353045433735,0,41550.000000000095,41550.000000000415,41550.00000000031,41549.99999999911,41549.99999999956
BASH-P INTERNATIONAL,"2947+MW7, Infopark Campus, Infopark, Kakkanad, Kerala 682030, India",Kerala,682030,56259,55934,0,0,16337,0,0,16064,30329,Ernakulam,Ernakulam,10.015078886419754,76.34669742469136,0,30328.999999998803,30328.99999999943,30328.999999999345,30328.99999999801,30328.99999999953
BEEK COTTON CLOTHS,"Amarjothi Gardens, Railway Feeder Road, 485V+46W, Railway Feeder Road, Kannipiran Colony, Valipalayam, Tiruppur, Tamil Nadu 641601, India",Tamil Nadu,641601,1581,199,0,0,0,1510,1118,0,0,Avinashi,Coimbatore,11.096039183333334,77.27852751666666,1,0.0,8.344970287008668e-11,0.0,0.0,0.0
BELL FOODS,"Pallichal Rd, Valummel, Kochi, Kerala 682005, India",Kerala,682005,1051564,2527796,2419963,2496982,793479,614300,1164049,1270138,1186474,Kochi,Ernakulam,9.940253061111113,76.25960161388889,0,1186474.000000009,1186474.0000000026,1186474.000000006,1186474.0000000151,1186474.0000000026
BENSO GARMENTS,"pariyur amman nagar, Nochipalayam, Tiruppur, Tamil Nadu 641605, India",Tamil Nadu,641605,1203,9745,1856,3818,8213,2717,1164,27738,7385,Kangayam,Erode,11.1207516,77.335338875,1,7384.999999998857,7384.999999999516,7384.999999999219,7384.999999997841,7384.999999999462
BENZER TRADING INDIA P.LTD.,"Thiruvegappura, Pattambi, Thiruvegappura, Kerala 679304, India",Kerala,679304,52498,0,0,0,0,0,0,0,0,Ottappalam,Palakkad,10.874712928571428,76.12257982857143,3,0.0,3.6505836047424926e-11,0.0,0.0,0.0
BESCOAT,"Ambalathinkara, Kerala 671531, India",Kerala,671531,28000,62661,24000,54095,36650,60280,31723,65418,45275,Hosdurg,Kasargod,12.355591562679429,75.14433762918661,3,45274.99999999903,45274.99999999944,45274.99999999935,45274.99999999831,45274.99999999953
BETHANYA CASHEW COMPANY,"Mavady Post, Enathu Puthoor Rd, Kerala 691507, India",Kerala,691507,238644,222831,171636,138504,213504,138380,161054,210876,238921,Kottarakkara,Kollam,9.043139252830189,76.7161006773585,0,238921.00000000003,238920.9999999997,238921.0000000004,238921.00000000023,238920.99999999988
BETHEN PLANTATIONS,"Glenmary Estate, Peerumade (PO), HXGG+78G, Peermade, Idukki, Kuttikkanam, Kerala 685531, India",Kerala,685531,11880,0,0,0,0,0,0,0,0,Peerumade,Idukki,9.576299994642858,76.99785246785714,0,0.0,7.581445938356199e-11,0.0,0.0,0.0
BETHSAIDA CASHEW COMPANY,"Kollam Kerala, Kerala 691507, India",Kerala,691507,190512,127008,188760,172334,216636,142140,209092,173644,189970,Kottarakkara,Kollam,9.043139252830189,76.7161006773585,0,189970.00000000023,189969.9999999997,189970.00000000003,189969.99999999997,189969.99999999974
BHAGYAM EXPORTS,"55, GNG St, Varadaraja Puram, Ambattur, Chennai, Tamil Nadu 600053, India",Tamil Nadu,600053,532,0,0,0,0,0,0,0,0,Ambattur,Tiruvallur,13.115547275,80.15386521875,2,0.0,8.679664111625396e-11,0.0,0.0,0.0
BHARATH PAPER CONVERSIONS,"No. 40, 5th Cross, Bharathi Park Rd, Periyar Nagar, Anna Nagar, Coimbatore, Tamil Nadu 641043, India",Tamil Nadu,641043,208565,261322,101325,197455,31751,78785,120963,26403,37040,Coimbatore North,Coimbatore,11.02590545,76.94764801666666,1,37039.99999999905,37039.99999999902,37039.99999999936,37039.99999999889,37039.99999999969
BHAVANI FOOD INDUSTRIES,"9HR7+5RM, Thiruvalla, Kerala 689101, India",Kerala,689101,25016,6526,6630,0,0,0,0,0,0,Tiruvalla,Pathanamthitta,9.39262636233184,76.5697836941704,0,0.0,8.027406825787939e-11,0.0,0.0,0.0
BIJU MODERN RICE MILL,"Oottara, Kollengode, JPH2+7X8, Panangattiri, Kerala 678504, India",Kerala,678504,21000,0,0,0,0,0,0,0,0,Chittur,Palakkad,10.639918471428572,76.6950375,1,0.0,6.698845503018245e-11,0.0,0.0,0.0
BIPIN EXPORTS,"20, Kongu Main Rd, SNVS Layout, Muthu Nagar, Renganatha Puram, Tiruppur, Tamil Nadu 641607, India",Tamil Nadu,641607,440,0,0,0,0,0,10400,11237,4704,Tirupur,Coimbatore,11.1214821,77.36035476666666,1,4703.999999998847,4703.999999999507,4703.999999999192,4703.999999997806,4703.999999999462
BIRIN GARMENTS,"57PJ+26C, SH19, Kaikattipudhur, Avinashi, Tamil Nadu 641654, India",Tamil Nadu,641654,305,0,0,0,0,0,0,0,0,Avinashi,Coimbatore,11.17420899375,77.233283075,1,0.0,8.701632346145322e-11,0.0,0.0,0.0
BISMI CASHEWS,"Sengeni Ammal St, Panruti, Tamil Nadu 607106, India",Tamil Nadu,607106,1050084,473652,735768,228504,624882,908621,818610,685322,779860,Panruti,Cuddalore,11.76015140909091,79.55037046363637,2,779860.0000000043,779860.0000000012,779860.0000000037,779860.0000000062,779860.0000000006
BISMI TRADING COMPANY,"EEC Market, Market P.O, Vazhappily, Muvattupuzha, Kerala 686673, India",Kerala,686673,1117994,747151,341385,174100,142352,269231,402661,1435275,2254230,Muvattupuzha,Ernakulam,9.98582857409836,76.58100003016393,0,2254230.000000004,2254230.000000002,2254230.000000007,2254230.000000012,2254230.0000000023
BISMILLAH AGRI COMMODITIES,"HMD BUILDING, 18/1640, Karicode, Koikkal, Kollam, Kerala 691004, India",Kerala,691004,42000,0,0,0,0,0,0,0,0,Kollam,Kollam,8.904030673684211,76.62197661052632,0,0.0,4.6665418690163776e-11,0.0,0.0,0.0
BLASTLINE  INDIA,"48/2510D4, 2nd Floor, Blastline Corporate Chamber,Pottakuzhi Elamakkakara (PO, Perandoor Rd, Mamangalam, Kaloor, Ernakulam, Kochi, Kerala 682026, India",Kerala,682026,41117,72252,102370,91046,85858,56970,97175,112473,148588,Ernakulam,Ernakulam,10.01621266875,76.288820209375,0,148587.9999999996,148587.99999999977,148587.9999999998,148587.9999999991,148587.99999999968
BLOSSOM APPARELS,"1058, Munusamy Salai, KK Nagar West, K. K. Nagar, Chennai, Tamil Nadu 600078, India",Tamil Nadu,600078,3443,6950,1440,0,2870,0,0,0,0,Chennai City Corporation,Chennai,13.040193223809524,80.19962110476192,2,0.0,8.456178437592279e-11,0.0,0.0,0.0
BLUE BREEZE ENTERPRISE,"SIDCO, Tamil Nadu 641606, India",Tamil Nadu,641606,60344,115531,112526,190146,469786,198646,344713,256061,399210,Tiruppur,Coimbatore,11.108007883333332,77.3994223,1,399210.00000000064,399209.99999999953,399210.0000000004,399210.0000000014,399210.0000000001
BLUEMOUNTAIN EXPORTERS,"14/486, East, Pandikudy, Chullickal, Kochi, Kerala 682001, India",Kerala,682001,25219,22563,9274,14074,25750,20622,22977,0,0,Kochi,Ernakulam,9.961975513432836,76.24336774328359,0,0.0,0.0,0.0,0.0,0.0
BOSE EXPORTS,"48FH+P3M, Asher Nagar 60 Feet Rd, Valayankadu South, Tiruppur, Tamil Nadu 641603, India",Tamil Nadu,641603,6157,20582,43819,15432,68644,45301,100581,338515,330521,Tiruppur,Coimbatore,11.135501066666668,77.34238386666667,1,330520.9999999997,330521.0000000001,330521.0000000004,330520.99999999977,330520.99999999977
BRIGHT ENGINEERING COMPANY,"lakshmi, Ganesh Nagar 3rd St, Lakshmi Nagar, Koundampalayam, Coimbatore, Tamil Nadu 641030, India",Tamil Nadu,641030,36980,16632,17058,2355,11648,6980,21141,38042,73586,Coimbatore North,Coimbatore,11.038309671428571,76.94737058571428,1,73585.99999999903,73585.99999999959,73585.99999999946,73585.99999999822,73585.99999999955
BRITE GARMENTS,"47/1, Periyar St, Erode, Tamil Nadu 638003, India",Tamil Nadu,638003,747,0,0,0,0,0,0,0,0,Erode,Erode,11.34824984,77.72973542666666,1,0.0,8.658857193467757e-11,0.0,0.0,0.0
BROS INDIA GROUP,"J9C6+WCC, Kayippuram, Muhamma, Kerala 688525, India",Kerala,688525,269601,281284,162195,146602,113391,241360,348723,365227,325570,Cherthala,Alappuzha,9.619357622727271,76.35883995454545,0,325570.0,325569.99999999953,325570.00000000064,325570.000000001,325569.9999999999
BUSTHAN AL WATHANIYA,"P9V4+QVH, Pallipuram, Kerala 688541, India",Kerala,688541,1034734,1111428,1105461,818131,488107,507506,487014,527820,201081,Cherthala,Alappuzha,9.742432095238096,76.36193387142858,0,201081.0000000033,201081.0000000008,201081.00000000227,201081.000000004,201081.00000000032
C.P. EXPORTS,"56, S Car St, Teppam South Bazar, Anna Nagar, Virudhunagar, Tamil Nadu 626001, India",Tamil Nadu,626001,58400,0,19200,0,389950,0,0,0,0,Virudhunagar,Virudhunagar,9.590604,77.95970871860465,0,0.0,0.0,0.0,0.0,0.0
C.R.GARMENTS,"330/1, Sri Gokula Krishna Nagar Tkt Mills, Palladam Road, Tiruppur - Palladam Rd, AB Nagar, Tiruppur, Tamil Nadu 641605, India",Tamil Nadu,641605,27112,19827,31054,687,816,293,0,0,0,Kangayam,Erode,11.1207516,77.335338875,1,0.0,1.4019539833661423e-10,0.0,0.0,0.0
C.R.I.RUBBERS,"XI /799, VIJAYAPURAM, Vadavathoor, Kottayam, Kerala 686010, India",Kerala,686010,146350,66155,156710,145122,146010,124182,58764,0,0,Kottayam,Kottayam,9.590680228,76.56449500800001,0,0.0,0.0,0.0,0.0,0.0
C.S. GARMENTS,"42, Karumarampalayam Rd, Karumarpalayam, Mannarai, Tiruppur, Tamil Nadu 641607, India",Tamil Nadu,641607,2253,18888,58215,1146,0,0,0,0,0,Tirupur,Coimbatore,11.1214821,77.36035476666666,1,0.0,2.3759147957689275e-10,0.0,0.0,0.0
C.V.S.EXPORTS,"28/4, Millers Rd, Kilpauk, Chennai, Tamil Nadu 600010, India",Tamil Nadu,600010,5096,0,0,0,0,0,0,0,0,Perambur Purasawalkam,Chennai,13.08101776716418,80.2377158283582,2,0.0,8.237976788502325e-11,0.0,0.0,0.0
CALMET ENGINEERING,"3/176, SS no - 419/5D, Maniyavi Thottam West Arasur, SulurTaluk, Amman Nagar, Coimbatore, Tamil Nadu 641407, India",Tamil Nadu,641407,18564,69777,86397,86345,228380,72192,0,0,26888,Palladam,Coimbatore,11.076832133333331,77.14018266666666,1,26887.99999999949,26887.99999999959,26887.9999999994,26887.999999998443,26887.99999999961
CANDOUR TEXPORT,"103, Street, Kozhipannai, Andipalayam, Tiruppur, Tamil Nadu 641687, India",Tamil Nadu,641687,9755,48705,91170,74962,242032,123160,143775,0,36466,Tiruppur,Coimbatore,11.0980518625,77.309765225,1,36465.999999999614,36465.99999999951,36465.99999999941,36465.99999999871,36465.99999999964
CANNANORE HANDLOOM EXPORTS,"V9FW+8MW, Elayavoor, Kerala 670005, India",Kerala,670005,518742,460864,347889,361760,312139,234667,385932,364588,347977,Kannur,Kannur,11.88568325,75.39104645,3,347977.00000000093,347976.99999999953,347977.0000000009,347977.000000002,347977.0000000001
CANNANORE HOME FURNISHINGS,"Manuelsons, Complex, GH Rd, Mananchira, Kozhikode, Kerala 673001, India",Kerala,673001,1007,589,0,0,0,0,0,0,0,Kozhikode,Kozhikode,11.250885012068968,75.78104223908046,3,0.0,8.627156125336503e-11,0.0,0.0,0.0
CANON BALL FASHIONS,"5C6J+J64, Kavandampalayam, Tamil Nadu 638752, India",Tamil Nadu,638752,572,0,0,0,0,0,0,0,0,Erode,Erode,11.1508836,77.4367188,1,0.0,8.675793057084441e-11,0.0,0.0,0.0
CARONA KNITWEAR,"1,Bridgeway Colony, Extention North, Bridge Way Colony Extension, Tiruppur, Tamil Nadu 641607, India",Tamil Nadu,641607,4638,0,3883,0,2852,0,0,0,0,Tirupur,Coimbatore,11.1214821,77.36035476666666,1,0.0,9.078730869541175e-11,0.0,0.0,0.0
CARRIS PIPES,"P.B. No.2, Koovappady P.O, Akanad, Kerala 683544, India",Kerala,683544,5188,3600,2400,2500,15041,2280,0,880,3800,Kunnathunad,Ernakulam,10.166672573758866,76.50774667872341,0,3799.999999998868,3799.999999999503,3799.999999999196,3799.9999999978113,3799.999999999473
CAT COIR,"Coir park 1 Thiruvizha North Road, Post, Mayithara, Cherthala South, Kerala 688539, India",Kerala,688539,143863,0,0,0,0,0,0,0,0,Cherthala,Alappuzha,9.66428288888889,76.34121377777778,0,0.0,0.0,0.0,0.0,0.0
CATHOLIC ART CENTRE,"Broadway, Church St, Marine Drive, Ernakulam, Kochi, Kerala 682031, India",Kerala,682031,400,0,0,0,0,0,0,0,0,Ernakulam,Ernakulam,9.99692354,76.27468644,0,0.0,8.692438591610549e-11,0.0,0.0,0.0
CBC FASHIONS,"No.11, M. R. Nagar, Dharapuram Main Rd, MR Nagar, K N P Colony, Tiruppur, Tamil Nadu 641604, India",Tamil Nadu,641604,174085,172183,126384,69477,50926,42170,3300,0,0,Tiruppur,Coimbatore,11.096187535483873,77.34985892258065,1,0.0,2.464451197126615e-12,0.0,0.0,0.0
CEAKAY INDUSTRIES,"Ponpuzha, Ithithanam Post, Changanacherry Near Saintgits college, Pathamuttom, Kottayam, Ithithanam, Kerala 686535, India",Kerala,686535,1977574,1545564,1535023,2036325,2587584,2278346,3361076,1726492,2138720,Changanassery,Kottayam,9.479609457894735,76.52609346315789,0,2138720.000000013,2138719.999999998,2138720.0000000065,2138720.000000024,2138720.0000000037
CEE BEE EXPORTS,"582M+VXG, Vengamedu, Mangulam, Tiruppur, Tamil Nadu 641603, India",Tamil Nadu,641603,912,9506,9067,0,11227,6887,1336,0,0,Tiruppur,Coimbatore,11.135501066666668,77.34238386666667,1,0.0,9.31477471275326e-11,0.0,0.0,0.0
CHAITHANYA HERBALS,"Naruvamoodu, Pallichal, Kerala 695507, India",Kerala,695507,125,0,0,8600,6178,8877,8734,0,8815,Neyyattinkara,Thiruvananthapuram,8.458312268965518,77.0568589275862,0,8814.999999998869,8814.999999999483,8814.999999999178,8814.999999997844,8814.999999999476
CHANDRA CASHEW FACTORY,"2PCC+JGV, Thevalapuram, Neduvathoor, Kerala 691507, India",Kerala,691507,332520,360768,314892,90876,77326,0,60000,30000,90000,Kottarakkara,Kollam,9.043139252830189,76.7161006773585,0,89999.99999999978,90000.00000000016,90000.00000000052,89999.99999999924,89999.99999999981
CHARANKATTU COIR MFG.CO.P.LTD.,"AS Road, J84M+GF5, Kanjikuzhy, Shertallay, Kerala 688524, India",Kerala,688524,891951,955612,1131406,1103900,1177853,945297,550028,520763,656219,Cherthala,Alappuzha,9.6891011625,76.33285069583334,0,656219.0000000058,656219.0000000007,656219.0000000029,656219.0000000075,656219.0000000009
CHARLY FISHERIES,"WGPV+RXG, Neendakara, Kollam, Kerala 691582, India",Kerala,691582,1372644,1918042,2273976,3775798,3277071,1379848,1802697,1623207,2202798,Karunagapally,Kollam,8.9475339,76.53934165,0,2202798.000000016,2202797.9999999995,2202798.000000005,2202798.000000025,2202798.0000000037
CHEETAH GARMENS,"396M+769, Tiruppur, Tamil Nadu 641605, India",Tamil Nadu,641605,13191,1200,0,7179,16313,0,0,0,0,Kangayam,Erode,11.1207516,77.335338875,1,0.0,4.381908055278207e-11,0.0,0.0,0.0
CHEMMEENS (REGD),"Chemmeens Junction,Karuvekipady, Kochi-682005, Karuvelipady, Kazhuthumuttu, Thoppumpady, Kochi, Kerala 682005, India",Kerala,682005,219608,185660,118000,0,0,0,0,0,0,Kochi,Ernakulam,9.940253061111113,76.25960161388889,0,0.0,1.7269363028399022e-10,0.0,0.0,2.599412143157678e-11
CHERISH KNITS,"81, 2nd Street, New Ramakrishna Puram Mordan Bakery Street, Muthu Nagar, Renganatha Puram, Tiruppur, Tamil Nadu 641607, India",Tamil Nadu,641607,26391,19593,12226,9696,33325,11345,5062,31147,84347,Tirupur,Coimbatore,11.1214821,77.36035476666666,1,84346.99999999905,84346.99999999959,84346.99999999948,84346.99999999828,84346.99999999958
CHERUKATTU INDUSTRIES,"V8C7+3QX Cherukattu Industries, Aroor gram panchayat, Kochi, Kerala 688534, India",Kerala,688534,4773530,3710012,4801189,3224544,1616900,1333679,1467950,758625,556020,Cherthla,Alappuzha,9.871729377142858,76.30438504,0,556020.0000000187,556020.0000000066,556020.0000000105,556020.0000000191,556020.0000000029
CHETHANA PHARMACEUTICALS,"X6CJ+F69, Shanti Nagar, Perintalmanna, Kerala 679322, India",Kerala,679322,4455,10667,5095,0,0,0,0,0,0,Perinthalmanna,Malappuram,10.977929251428572,76.22854857333334,3,0.0,9.556901237062667e-11,0.0,0.0,0.0
CHIPPY EXPORTS,"Pitchampalayam Pudur, Tiruppur, Tamil Nadu 641603, India",Tamil Nadu,641603,40250,64024,172839,35168,33858,29799,18434,0,5230,Tiruppur,Coimbatore,11.135501066666668,77.34238386666667,1,5229.999999999533,5230.000000000125,5229.999999999647,5229.999999998156,5229.999999999519
CHRISTY APPARELS,"SR Nagar, Periyandipalayam, Tiruppur, Tamil Nadu 641687, India",Tamil Nadu,641687,118856,147952,539452,1029221,313175,68811,101571,63120,3200,Tiruppur,Coimbatore,11.0980518625,77.309765225,1,3200.000000001955,3199.9999999996703,3199.9999999981774,3200.0000000002046,3199.9999999997035
CII GUARDIAN INTERNATIONAL LTD.,"16B, CSEZ, Kakkanad, Kerala 682037, India",Kerala,682037,171,0,0,0,0,0,0,0,0,Ernakulam,Ernakulam,9.997384706451612,76.34072476129032,0,0.0,8.714600378857523e-11,0.0,0.0,0.0
CLAIRON FILTERS,"Plot. No.41, 37, CSEZ, Kakkanad, Kochi, Kakkanad, Kerala 682037, India",Kerala,682037,65762,56866,108746,197692,205880,154556,212749,128149,90882,Ernakulam,Ernakulam,9.997384706451612,76.34072476129032,0,90881.99999999988,90881.99999999936,90881.99999999932,90881.99999999929,90881.99999999965
CLASSIC COIR FACTORY,"IV/833, MSP, Valavanad, Pollethai, Alappuzha, Kerala 688522, India",Kerala,688522,1141146,1153699,2037420,1963471,2912157,1792341,4643823,1473757,1759857,Ambalapuzha,Alappuzha,9.572168202777778,76.32190507222222,0,1759857.000000015,1759856.9999999998,1759857.000000006,1759857.0000000233,1759857.0000000035
CLASSIC COOLING TOWERS,"No. 566, Swaminathapuram Village, Vadavalli, Panchayat, Taluk, Annur, Tamil Nadu 641697, India",Tamil Nadu,641697,6500,0,0,0,0,0,0,0,0,Mettupalayam,Coimbatore,11.2594773,77.0357906,1,0.0,8.102102774114772e-11,0.0,0.0,0.0
COCHIN CADALAS P.LTD.,"Kochi, Kerala, India",Kerala,682024,11000,0,0,0,0,0,0,0,0,Ernakulam,Ernakulam,10.01888763298969,76.30253450412371,0,0.0,7.666609138257229e-11,0.0,0.0,0.0
COCHIN CONDIMENTS P.LTD.,"Kochi, Kerala, India",Kerala,682002,10892,0,0,0,0,0,0,0,0,Kochi,Ernakulam,9.957255232894736,76.25402236842105,0,0.0,7.67706098551781e-11,0.0,0.0,0.0
COCHIN COSMOS FOODS LTD.,"Kochi, Kerala, India",Kerala,688524,131200,178220,64000,63000,122600,50000,103000,56125,75000,Cherthala,Alappuzha,9.6891011625,76.33285069583334,0,74999.99999999913,74999.99999999933,74999.99999999965,74999.99999999882,74999.9999999997
COCHIN DIES AND MOULDS,"Kochi, Kerala, India",Kerala,682002,11855,0,0,0,0,0,0,0,0,Kochi,Ernakulam,9.957255232894736,76.25402236842105,0,0.0,7.583865347444296e-11,0.0,0.0,0.0
COCHIN EXPORTS,"Federal Park, Vennala, Ernakulam, Kochi, Kerala 682028, India",Kerala,682028,11561,0,0,0,165,0,4501,5545,9218,Ernakulam,Ernakulam,9.99670085,76.32102778,0,9217.999999998856,9217.999999999503,9217.999999999203,9217.999999997824,9217.999999999469
COCHIN EXPORTS  ,"Federal Park, Vennala, Ernakulam, Kochi, Kerala 682028, India",Kerala,682028,2469,0,0,0,0,0,0,0,0,Ernakulam,Ernakulam,9.99670085,76.32102778,0,0.0,8.492208295479606e-11,0.0,0.0,0.0
COCHIN FROZEN FOOD EXPORTS P. LTD.,"Kochi, Kerala, India",Kerala,688534,1459122,1655089,2573128,2995866,1846186,1520098,825194,322699,49492,Cherthla,Alappuzha,9.871729377142858,76.30438504,0,49492.00000001209,49492.00000000125,49492.00000000088,49492.00000001046,49492.000000001215
COCHIN MINERALS AND RUTILE LTD.,"Poorna Nagar Park,, 4952+GWW, Periyar Nagar, Aluva, Kerala 683101, India",Kerala,683101,42222680,41453954,43104694,37195286,41561818,42376693,36377472,42237733,32178282,Aluva,Ernakulam,10.095680780412373,76.36233782061856,0,32178282.00000028,32178282.00000005,32178282.000000183,32178282.00000044,32178282.00000006
COCHIN RECLAIM & RUBBER,"Kochi, Kerala, India",Kerala,682002,60000,57620,0,0,0,0,0,0,0,Kochi,Ernakulam,9.957255232894736,76.25402236842105,0,0.0,2.284856818797193e-11,0.0,0.0,1.4574988951538498e-11
COCHIN RUBBER INDUSTRIES,"Kochi, Kerala, India",Kerala,682002,41466,38699,0,0,55744,0,0,125560,22502,Kochi,Ernakulam,9.957255232894736,76.25402236842105,0,22501.99999999891,22501.99999999952,22501.999999999367,22501.999999998025,22501.999999999458
COCHIN SURFACTANTS P.LTD.,"PLOT no 63, Edayar, Kerala 683502, India",Kerala,683502,271800,265772,924712,818520,0,0,0,0,0,Paravur,Ernakulam,10.087692555555556,76.30506273333334,0,2.770240306758595e-09,1.829516003820648e-09,0.0,0.0,0.0
COCHIN TRADERS COCHIN,"20/46B, Near I.O.C Petrol Pump, Palluruthy Veli, Aroor - Thoppumpady Rd, Palluruthy, Kochi, Kerala 682006, India",Kerala,682006,64699,8000,8000,9000,45690,0,9072,0,0,Kochi,Ernakulam,9.917652551851852,76.27326455925926,0,0.0,0.0,0.0,0.0,0.0
COCO  FIBRE TEX,"G83H+F9Q, Aarattuvazhi, Kanjiramchira, Aryad South, Alappuzha, Kerala 688007, India",Kerala,688007,2935736,3410310,3501333,3392388,4147347,2929253,5330246,3877303,5084111,Ambalapuzh A,Alappuzha,9.510326070833331,76.3268778625,0,5084111.000000026,5084111.000000004,5084111.00000002,5084111.000000049,5084111.000000007
COIMBATORE POTTERIES & REFRACTORIES,"Coimbatore, Tamil Nadu, India",Tamil Nadu,682024,77520,158245,99390,138945,144470,285928,262443,101606,137480,Ernakulam,Ernakulam,10.01888763298969,76.30253450412371,0,137479.99999999965,137479.99999999924,137479.9999999997,137479.99999999965,137479.99999999977
COIR FLEX,"Building No.X11, Pattanakkad, Cherthala, Pattanakkad, Kerala 688531, India",Kerala,688531,734777,748190,851413,730777,749965,770176,1124961,842077,787539,Cherthala,Alappuzha,9.725622914130437,76.31563821847826,0,787539.0000000044,787539.0000000003,787539.0000000029,787539.0000000076,787539.0000000007
COIR FLOOR FURNISHING CO.,"Kalyan Villa, Vellakinar Rd, Vellakkinar, Alappuzha, Kerala 688001, India",Kerala,688001,9908,6800,12800,7489,6107,0,9100,3506,6158,Ambalapuzha,Alappuzha,9.49638391904762,76.33209264761905,0,6157.999999998901,6157.999999999533,6157.999999999218,6157.999999997845,6157.999999999474
COIR MATES INDIA,"TP-12/498K, Varanad PO, Cherthala, Pin: 688539, Alappuzha, Cherthala, Kerala 688524, India",Kerala,688539,128449,132356,137397,203908,213406,187355,175846,191626,116995,Cherthala,Alappuzha,9.66428288888889,76.34121377777778,0,116994.99999999994,116994.99999999945,116994.9999999996,116994.99999999956,116994.99999999968
COMET EXPORTS,"J88R+699, Kanjikuzhy, Kanjikkuzhi, Kerala 688525, India",Kerala,688525,668449,390157,305216,362471,268197,228331,320840,229223,217167,Cherthala,Alappuzha,9.619357622727271,76.35883995454545,0,217167.00000000064,217166.9999999992,217167.0000000003,217167.0000000011,217167.00000000003
CONSOLIDATED WOOD INDUSTRIES,"Chingavanam, Kerala 686007, India",Kerala,686007,68000,117245,116525,105785,184253,506236,859227,85850,209002,Kottayam,Kottayam,9.531553366666667,76.5150448,0,209002.0000000001,209001.9999999988,209001.9999999998,209002.00000000096,209001.9999999999
COONOOR TEA ESTATES CO. LTD.,"Coonoor, Tamil Nadu, India",Tamil Nadu,682002,514266,507220,880344,126280,0,0,0,0,0,Kochi,Ernakulam,9.957255232894736,76.25402236842105,0,1.6888332164059911e-09,2.469209272890108e-09,1.869241757393375e-09,0.0,0.0
COSMIK INDUSTRY,"514/7, Pothiyampalayam, Road, Arasur, Tamil Nadu 641407, India",Tamil Nadu,641407,38809,45680,21494,48932,52553,37697,13682,23705,12430,Palladam,Coimbatore,11.076832133333331,77.14018266666666,1,12429.99999999899,12429.999999999412,12429.99999999922,12429.999999998076,12429.999999999513
COTTAGE ARTS EMPORIUM,"No. 29, TT Krishnamachari Rd, CIT Colony, Mylapore, Chennai, Tamil Nadu 600018, India",Tamil Nadu,600018,3140,2390,1275,1059,5918,1201,0,3074,469,Chennai,Chennai,13.03717306923077,80.25536904615385,2,468.9999999988477,468.9999999995045,468.9999999991842,468.9999999977813,468.9999999994631
COTTON BUDS INC.,"2a, PN Rd, Palanisamy Nagar, Vengamedu, Poyampalayam, Tiruppur, Tamil Nadu 641602, India",Tamil Nadu,641602,37641,20785,14479,0,0,0,3488,96931,118864,Tiruppur,Coimbatore,11.121108205263155,77.34359659473684,1,118863.99999999908,118863.9999999997,118863.99999999964,118863.99999999844,118863.99999999956
COVAI EXIM,"B No.10-1, Krishna Nagar, Maniyarkaranpalayam Road, Periyar Nagar, Anna Nagar, Coimbatore, Tamil Nadu 641006, India",Tamil Nadu,641006,587,0,0,0,0,0,0,22360,0,Coimbatore North,Coimbatore,11.059443936363635,76.99888995,1,0.0,9.898303365681731e-11,0.0,0.0,0.0
COVEMA FILAMENTS LTD.,"14-B, CSEZ, Kakkanad, Kerala 682037, India",Kerala,682037,26463,16475,13328,18765,10894,30676,30586,0,0,Ernakulam,Ernakulam,9.9974668375,76.341009940625,0,0.0,0.0,0.0,0.0,0.0
CPS TEXTILES P. LTD.,"26A, Kangayam Rd, opp. JMHS School, Kaliyappa Nagar, Cheran Nagar, Lakshmi Garden, Tiruppur, Tamil Nadu 641604, India",Tamil Nadu,641604,8789,0,17906,23297,0,0,58126,62872,12732,Tiruppur,Coimbatore,11.096187535483873,77.34985892258065,1,12731.999999998969,12731.999999999538,12731.99999999921,12731.999999997975,12731.99999999945
CRAFT INDIA FOOTWEAR CALICUT,"Kozhikode, Kerala, India",Kerala,682024,3279,2852,0,6997,15458,0,0,6060,12439,Ernakulam,Ernakulam,10.01888763298969,76.30253450412371,0,12438.999999998876,12438.999999999498,12438.999999999203,12438.999999997855,12438.999999999482
CRAFT KNIT GARMENTS,"4/684 Nochipalayam Road Veerapandi Post, Palladam Rd, Tiruppur, Tamil Nadu 641605, India",Tamil Nadu,641605,1952,9505,4651,0,0,0,0,0,0,Kangayam,Erode,11.1207516,77.335338875,1,0.0,9.692182173168059e-11,0.0,0.0,0.0
CRESCENT INTERNATIONAL TYRE TREADS,"9/22 HA IDA, Nalam Mile, ALUVA, Kerala 683112, India",Kerala,683112,4043,16713,0,0,12206,38434,11902,56260,15000,Kunnathunad,Ernakulam,10.08974094375,76.39621829375,0,14999.999999998883,14999.999999999503,14999.999999999269,14999.99999999794,14999.999999999458
CROSSINGS INTERNATIONAL DISTRIBUTION,"682037, CSEZ, Kochi, Kakkanad, Kerala 682037, India",Kerala,682037,11290,25199,14925,36061,34054,24295,16140,9568,1143,Ernakulam,Ernakulam,9.9974668375,76.341009940625,0,1142.9999999989357,1142.9999999994404,1142.9999999991644,1142.999999997937,1142.9999999994861
D.C. MILLS,"Valavanadu, Kalavoor P.O., Kanjikuzhy, Ward 1, Alappuzha, Kerala 688522, India",Kerala,688522,327255,206232,105008,50151,29687,43837,0,0,0,Ambalapuzha,Alappuzha,9.572168202777778,76.32190507222222,0,0.0,0.0,0.0,0.0,4.5013516227207847e-11
D.M.G EXPORTS,"42/60, Kumar Nagar, Renganatha Puram, Tiruppur, Tamil Nadu 641602, India",Tamil Nadu,641602,137072,129675,58660,0,0,0,0,0,0,Tiruppur,Coimbatore,11.121108205263155,77.34359659473684,1,0.0,9.860518664446576e-11,0.0,0.0,3.373807849577108e-11
D.S.P. KNITTING COMPANY,"Bridge Way Colony Extension, Tiruppur, Tamil Nadu 641602, India",Tamil Nadu,641602,3107,12979,2304,23429,8564,5068,47083,1336,915,Tiruppur,Coimbatore,11.121108205263155,77.34359659473684,1,914.9999999988482,914.9999999994028,914.9999999991256,914.9999999978908,914.9999999994809
D2D INTERNATIONAL,"1/37, Nochipalayam, Veerapandi, Tiruppur, Tamil Nadu 641605, India",Tamil Nadu,641605,78659,124517,212457,259268,451487,187058,128590,264015,481685,Kangayam,Erode,11.1207516,77.335338875,1,481685.0000000012,481685.0000000001,481685.0000000008,481685.0000000017,481685.0000000001
DECE TOOLS,"2XXQ+F5F, Gopalakrishnapuram, Ganapathy, Coimbatore, Tamil Nadu 641006, India",Tamil Nadu,641006,649,0,0,0,0,0,0,0,0,Coimbatore North,Coimbatore,11.059443936363635,76.99888995,1,0.0,8.668341277093101e-11,0.0,0.0,0.0
DEEKAY KNITWEARS,"SF NO.229, KARAIPUDHUR ARULPURAM, PALLADAM, RAOD, Arulpuram, Tiruppur, Tamil Nadu 641605, India",Tamil Nadu,641605,31261,46917,107196,155883,180093,136083,53556,88727,6037,Kangayam,Erode,11.1207516,77.335338875,1,6036.99999999966,6036.999999999549,6036.999999999205,6036.999999998535,6036.999999999516
DEEPA AGENCIES,"39/1384 Four Star Buildings Chittoor Road Valanjambalam, Ernakulam South, Kochi, Kerala 682016, India",Kerala,682016,1479,1425,3353,14860,3074,8750,4154,0,11957,Ernakulam,Ernakulam,9.965396735294116,76.28713604901961,0,11956.999999998883,11956.99999999949,11956.99999999918,11956.999999997865,11956.999999999474
DELSEA EXPORTS P.LTD.,"Nambiapuram, Palluruthy, Kochi, Kerala 682006, India",Kerala,682006,524217,405226,509137,512450,157724,0,258296,927125,1638148,Kochi,Ernakulam,9.917652551851852,76.27326455925926,0,1638148.0000000035,1638148.0000000016,1638148.000000005,1638148.000000008,1638148.0000000014
DELTA PLYWOODS AND BOARDS,"Iringole Rd, PO, Perumbavoor, Kerala 683548, India",Kerala,683548,138000,168300,322200,89700,0,0,625160,3717350,745350,Perumbavoor,Ernakulam,10.114317095238096,76.49678308095238,0,745350.0000000022,745350.0000000034,745350.0000000038,745350.0000000042,745349.9999999983
DHANALAKSHMI WEAVING WORKS,"AKG Nagar Housing Colony, Kakkat, Kannur, Kerala 670005, India",Kerala,670005,162103,109057,127511,76034,157096,183493,91957,23003,18886,Kannur,Kannur,11.88568325,75.39104645,3,18885.999999999607,18885.99999999953,18885.99999999955,18885.99999999868,18885.999999999603
DHANAM EXPORTS,"3/247, Senthil Nagar, Ganapathi Palayam, Kangayam Main Road, Tamilnadu, Padiyur, Nachipalayam, Tamil Nadu 638701, India",Tamil Nadu,638701,6409,0,0,0,0,0,0,0,0,Kangayam,Erode,11.008906164814816,77.55643352407408,1,0.0,8.110909423195446e-11,0.0,0.0,0.0
DHANAM TEXTILES,"30, Coral Merchant Street, Mannadi, George Town, Chennai, Tamil Nadu 600001, India",Tamil Nadu,600001,40995,39259,43648,41012,53891,15081,22001,14214,5694,George Town,Chennai,13.08114703448276,80.26748411034482,2,5693.999999999066,5693.999999999528,5693.999999999265,5693.999999998036,5693.999999999509
DOLPHIN RUBBER INDUSTRIES,"Industrial Development Plot, Poovanthuruthu, Kottayam, Kerala 686012, India",Kerala,686012,761554,968567,1314232,2035202,1769972,1954678,2126792,1586599,1508514,Kottayam,Kottayam,9.54856711111111,76.52230786666667,0,1508514.0000000102,1508513.999999999,1508514.0000000035,1508514.0000000168,1508514.000000002
DON TEX,"8/24 F ANGERIPALAYAM ROAD OPP.KONGU VELLALAR SCHOOL TIRUPUR, Mahavishnu Nagar, Pitchampalayam Pudur, Tiruppur, Tamil Nadu 641603, India",Tamil Nadu,641603,5162,28137,99303,66402,108233,71640,53568,21411,17251,Tiruppur,Coimbatore,11.135501066666668,77.34238386666667,1,17250.99999999946,17250.999999999738,17250.99999999937,17250.9999999983,17250.999999999527
DREAMS EXPORTS,"7G3C+5GX, Thattarambalam, Mavelikara, Kannamangalam North, Kerala 690103, India",Kerala,690103,63634,0,0,20661,0,8240,6425,0,15636,Mavelikkara,Alappuzha,9.250708,76.51850396153846,0,15635.9999999989,15635.999999999418,15635.999999999172,15635.9999999979,15635.999999999485
DURO OVERSEAS TRDING HOUSE,"1143, Mettupalayam Rd, near Murugan Mills, Nesavaalar Colony, Coimbatore, Tamil Nadu 641043, India",Tamil Nadu,641043,1310,1625,1075,0,0,0,2800,0,0,Coimbatore North,Coimbatore,11.02590545,76.94764801666666,1,0.0,8.598026917662659e-11,0.0,0.0,0.0
DUSTAN WOOD,"Kurichy, Thuruthy, Kerala 686532, India",Kerala,686532,94264,383521,254299,180245,197350,0,14000,0,0,Changanassery,Kottayam,9.502805928070176,76.51869062982456,0,0.0,4.5223989138627065e-11,0.0,0.0,1.6700478216694834e-12
DYNAMIC TECHNO MEDICALS PVT. LTD.,"Kodikuthimala, Ashokapuram, Edathala, Aluva, Kerala 683101, India",Kerala,683101,253694,156720,181943,253151,270034,238205,297257,298590,398062,Aluva,Ernakulam,10.095680780412373,76.36233782061856,0,398062.0000000008,398061.9999999997,398062.0000000005,398062.0000000014,398062.0
EASTERN ENGINEERS,"SF.No.418,Karukkankattor pirivu,Covai main road, Perundurai, Tamil Nadu 638052, India",Tamil Nadu,638052,423,0,0,0,0,0,0,15000,0,Erode,Erode,11.28118388372093,77.58956259534884,1,0.0,9.511296335909263e-11,0.0,0.0,0.0
EASTERN RUG MILLS,"CCSB Rd, Civil Station Ward, Alappuzha, Kerala 688001, India",Kerala,688001,139500,189521,122600,97521,125718,72676,158641,58391,47641,Ambalapuzha,Alappuzha,9.49638391904762,76.33209264761905,0,47640.99999999935,47640.99999999943,47640.99999999964,47640.999999998894,47640.999999999665
EGATE INTERNATIONAL,"Lane 1, VRWA, near State Bank of India, Vyttila, Ernakulam, Kochi, Kerala 682019, India",Kerala,682019,305,0,0,0,0,0,0,0,0,Ernakulam,Ernakulam,9.96996995974026,76.31541058961038,0,0.0,8.701632346145322e-11,0.0,0.0,0.0
ELAN EXPORTS,"37QR+8H7, Tiruppur, Tamil Nadu 641687, India",Tamil Nadu,641687,170,0,0,0,0,0,0,0,0,Tiruppur,Coimbatore,11.0980518625,77.309765225,1,0.0,8.714697155221048e-11,0.0,0.0,0.0
ELUMALAI APPARELS,"Gandhi Road, Opposite To Nataraja Sabari Garden,, D-1, Anupparpalayam Pudur, Tiruppur, A.Thirumuruganpoondi, Tamil Nadu 641652, India",Tamil Nadu,641652,14201,1195,0,0,0,0,0,0,0,Tiruppur,Coimbatore,11.1398791,77.31429145,1,0.0,7.343560833472959e-11,0.0,0.0,0.0
EMIL TRADERS P.LTD.,"M567+639, Meenangadi, Kerala 673591, India",Kerala,673591,10036448,12297164,12753404,15195731,18198674,15174140,21613851,21753085,15125840,Sulthanbathery,Wayanad,11.669487375510204,76.16275356530613,3,15125840.000000102,15125840.000000006,15125840.000000063,15125840.000000188,15125840.00000002
EMINENT MINI STORES,"7/808, Court Rd, Near Central Fish Market, Mananchira, Kozhikode, Kerala 673001, India",Kerala,673001,56224,109637,62338,54721,22200,22976,0,0,0,Kozhikode,Kozhikode,11.250885012068968,75.78104223908046,3,0.0,2.7736527065468403e-11,0.0,0.0,0.0
EMMANUEL CASHEW INDUSTRIES,"WRP4+F59, Konnathu Mukku - Mathayi Mukku Rd, Chepra, Kerala 691520, India",Kerala,691520,892668,624528,108504,30000,0,0,0,0,0,Kottarakkara,Kollam,8.947908536734694,76.79522364897959,0,0.0,0.0,2.5164634408878007e-10,0.0,7.587253179486563e-10
EMPEROR TEXTILES,"Nh 47 Main Road, SS Nagar, Tiruppur, Tamil Nadu 641666, India",Tamil Nadu,641666,500,3500,131,0,0,0,0,0,0,Tirupur,Coimbatore,11.197693457142856,77.3648192,1,0.0,8.679264620629796e-11,0.0,0.0,0.0
ENGINEERED  ELASTOMER SOLUTIONS CO.,"SDF 16A, IVth Floor, CSEZ, Kakkanad, Kochi, Kakkanad, Kerala 682037, India",Kerala,682037,19202,27920,45004,43823,20401,23206,56187,51285,16078,Ernakulam,Ernakulam,9.9974668375,76.341009940625,0,16077.99999999908,16077.999999999569,16077.999999999274,16077.999999998106,16077.999999999483
ENJAYES SPICES & CHEMICAL OILS (P) LTD.,"Spices Hill, Vallicode, Pathanamthitta, Kottayam, Vallicode Kottayam, Kerala 689656, India",Kerala,689656,26207,2089,23097,4113,2422,5019,1131,3013,2099,Kozhenchery,Pathanamthitta,9.21272854,76.80979611333333,0,2098.999999998952,2098.9999999995853,2098.999999999241,2098.999999997821,2098.9999999994657
ENTICE GARMENTS,"No.2, to Muthanampalayam Road, Muthanampalayam (Post),, Nallur, Tiruppur, Tamil Nadu 641606, India",Tamil Nadu,641606,42593,63755,68299,115220,214620,254155,207588,79652,188951,Tiruppur,Coimbatore,11.108007883333332,77.3994223,1,188950.99999999985,188950.9999999994,188950.9999999997,188950.9999999997,188950.99999999977
ESCON CHEMICAL COMPANY,"423 A South vellarapilly, po, Kochi, Thekkumbhagom, Kerala 683580, India",Kerala,683580,7150,6850,0,0,0,0,0,0,0,Aluva,Ernakulam,10.13932176153846,76.40794163846154,0,0.0,7.963147860637415e-11,0.0,0.0,0.0
ESM TEXTILES,"9FXW+32J, Dhalavaipuram, Tamil Nadu 626188, India",Tamil Nadu,626188,20374,2520,0,0,0,0,0,0,0,Rajapalayam,Virudhunagar,9.39403522,77.49731922000001,0,0.0,6.731449886363649e-11,0.0,0.0,0.0
ESMARIO EXPORT ENTERPRISES,"WHH6+WJW, Kavanad, Sakthikulangara North, Kollam, Kerala 691003, India",Kerala,691003,698751,444411,332906,526816,533705,389956,953787,636410,489700,Kollam,Kollam,8.915929604166667,76.55627739166667,0,489700.00000000175,489699.9999999986,489700.0000000009,489700.0000000041,489700.00000000035
ESS GEE GARMENTS,"No:7, MS Nagar 2nd Street, Asirwatham Stores, Kondu Main Road, Appachi Nagar, Kongu Nagar, Tiruppur, Tamil Nadu 641607, India",Tamil Nadu,641607,83268,168177,88617,7429,0,0,0,0,0,Tirupur,Coimbatore,11.1214821,77.36035476666666,1,0.0,2.1050554889977566e-10,0.0,0.0,4.5992615052394116e-11
ESS PEE KNIT WEAR,"Kangayam Rd, Rajiv Nagar, Bavani Nagar, Tiruppur, Tamil Nadu 641602, India",Tamil Nadu,641602,35578,222009,33715,0,0,36068,10589,365279,10955,Tiruppur,Coimbatore,11.121108205263155,77.34359659473684,1,10954.99999999865,10954.999999999607,10954.999999999744,10954.999999998274,10954.999999999374
ESSA GARMENTS,"10, Pushpa Nagr, Kangayam Cross Road, Kannipiran Colony, Binny Compound, Tiruppur, Tamil Nadu 641604, India",Tamil Nadu,641604,12733,4032,0,0,0,0,0,0,0,Tiruppur,Coimbatore,11.096187535483873,77.34985892258065,1,0.0,7.454131507917426e-11,0.0,0.0,0.0
ESTILO FASHIONS,"C100, 1'ST AVENUE, Chintamani, C Block, Annanagar East, Chennai, Tamil Nadu 600102, India",Tamil Nadu,600102,17196,32593,13464,0,13097,9572,0,0,0,Perambur Purasawalkam,Chennai,13.087009394117649,80.22252395294117,2,0.0,8.424308489068752e-11,0.0,0.0,0.0
EVEREST WOOD INDUSTRIES,"Xix/318 Kanjirakkadu, Rayonpuram P.O, Perumbavoor Kochi- 683543, Kerala, Ernakulam, Perumbavoor, Kerala 683543, India",Kerala,683543,209148,1969098,2345382,891400,459250,182542,177286,514000,2318325,Kunnathunad,Ernakulam,10.1228594125,76.48358803125,0,2318325.0000000093,2318325.0000000084,2318325.000000012,2318325.000000016,2318325.0000000037
EVERGREEN EXPORTS,"Willingdon Island, Kochi, Kerala 682003, India",Kerala,682003,380800,1116785,2735846,1901060,3155069,2089040,4144846,5595181,1209471,Kochi,Ernakulam,9.960447846153846,76.27093469230769,0,1209471.0000000184,1209471.0000000063,1209471.0000000088,1209471.0000000224,1209471.0
EVERGREEN SORTING TECHNOLOGIES,"519, Athipalayam Rd, Sreevatsa Global Village, Chinnavedampatti, Coimbatore, Tamil Nadu 641049, India",Tamil Nadu,641049,2550,0,0,0,0,0,0,0,0,Coimbatore North,Coimbatore,11.072554814285716,76.98120481428572,1,0.0,8.484369410034169e-11,0.0,0.0,0.0
EXCEL LEATHERS,"Near KSEB, 68/1637A, Mariakutty John Rd, near Power House Road, Power House Junction, Kacheripady, Kochi, Kerala 682018, India",Kerala,682018,673,937,0,0,0,0,0,0,0,Ernakulam,Ernakulam,9.991596463636364,76.28133009181818,0,0.0,8.65561585462779e-11,0.0,0.0,0.0
EXIM KNITTERS,"No-1, L I C Colony, 1st Street, College Road, College Road, Odakkadu, Tiruppur, Tamil Nadu 641602, India",Tamil Nadu,641602,4777,0,0,0,0,0,0,0,0,Tiruppur,Coimbatore,11.121108205263155,77.34359659473684,1,0.0,8.268848448466449e-11,0.0,0.0,0.0
F.G.TRADING COMPANY,"Room No:40/5476, First Floor,Ruquia Chamber, TD Rd, Padma Junction, Pullepady, Kochi, Kerala 682035, India",Kerala,682035,2100,0,0,0,0,0,0,0,0,Ernakulam,Ernakulam,9.979283159183671,76.28271734081633,0,0.0,8.527918773619924e-11,0.0,0.0,0.0
FABRO TEXTILES,"48H4+2W8, Thiruvanakudi Nagar, Sirupooluvapatti, Tiruppur, Tamil Nadu 641652, India",Tamil Nadu,641652,4156,160,1884,0,0,0,5743,24336,23200,Tiruppur,Coimbatore,11.1398791,77.31429145,1,23199.999999998887,23199.99999999954,23199.99999999925,23199.999999997897,23199.999999999476
FACILE MACHINES,"SF.No.21, Sundarapuram to Madukkarai Market Road, Madukkarai Post, Madukkarai, Tamil Nadu 641105, India",Tamil Nadu,641105,19455,21040,19188,2625,0,0,0,0,0,Coimbatore South,Coimbatore,10.913312757142856,76.95360111428572,1,0.0,1.1202113651349803e-10,0.0,0.0,0.0
FAIRWAY CREATIONS,"SF No 343,Ramraj Nagar,80 ft road, near BPL Tower, Gandhi Nagar Post, Thiyagi Palanisamy Nagar, Velampalayam, Tiruppur, Tamil Nadu 641603, India",Tamil Nadu,641603,453,3941,58479,19654,23060,11409,23991,34231,199375,Tiruppur,Coimbatore,11.135501066666668,77.34238386666667,1,199374.99999999945,199375.0,199374.99999999985,199374.9999999989,199374.9999999997
FANTOM MARKETING,"J663+5MR, Medical College Approach Rd, Thangaloor, Kerala 680581, India",Kerala,680581,1126,12638,17585,57198,21354,9690,0,0,15850,Thrissur,Thrissur,10.575689350943396,76.22444455660377,3,15849.999999998978,15849.999999999469,15849.999999999138,15849.99999999797,15849.999999999493
FAVOUR-ITA INTERNATIONAL,"Door No. XI/408, NH-66, Cheriakadavu, Kannamaly, Cheriakadavu, Kannamaly, Kochi, Kerala 682008, India",Kerala,682008,58345,36025,50676,68447,123635,187772,107659,64693,59190,Kochi,Ernakulam,9.869597658064515,76.26596289354838,0,59189.99999999944,59189.99999999941,59189.99999999939,59189.99999999869,59189.99999999957
FCI OEN CONNECTORS LTD.,"29/2089 State Highway 15 Tripunithura, Road, Thykoodam, Vyttila, Kochi, Kerala 682019, India",Kerala,682019,200782,323444,242920,289828,224462,484592,1046776,892011,494142,Ernakulam,Ernakulam,9.96996995974026,76.31541058961038,0,494142.00000000105,494141.9999999993,494142.0000000011,494142.0000000035,494142.0
FEBIN MARINE FOODS,"Eramalloor,, Chandiroor, Alappuzha, Kerala 688537, India",Kerala,688537,1025711,1191635,1975858,2177302,1603077,1925676,1713297,1968917,1931880,Cherthala,Alappuzha,9.82172572,76.30522974,0,1931880.0000000133,1931880.0000000028,1931880.000000007,1931880.0000000196,1931880.0000000019
FIBER WONDERS,"M899+27Q Perumpara Juction, Po, Kuruppan Kulangara, Cherthala, Cherthala South, Kerala 688539, India",Kerala,688539,607660,631654,640570,1145128,1222181,1291428,1088561,940280,1466591,Cherthala,Alappuzha,9.66428288888889,76.34121377777778,0,1466591.000000006,1466590.999999999,1466591.0000000035,1466591.000000012,1466591.0000000016
FIBRE WORLD,"S.N.V. Road, Kannadikavala, Aryakara, Muhamma, Kerala 688525, India",Kerala,688525,5319908,5890454,6303410,6034021,7056345,5459040,7295257,8110817,8914568,Cherthala,Alappuzha,9.619357622727271,76.35883995454545,0,8914568.000000047,8914568.00000001,8914568.000000037,8914568.000000086,8914568.000000015
FILATEX VECHUKUNNEL PVT LTD.,"Canal Pirivu, Pampampallam, RR98+25C, Kanjikode, Pudussery East, Kerala 678557, India",Kerala,678557,1051,36042,0,0,0,14056,136154,108738,80240,Chittur,Palakkad,10.800383425,76.83577191666666,1,80239.99999999892,80239.99999999948,80239.99999999945,80239.99999999843,80239.99999999955
FILTROWIN INDUSTRIES,"1150c, Subhash Chandra Bose Rd, Jawahar Nagar, Elamkulam, Kochi, Kerala 682020, India",Kerala,682020,472618,658630,624573,837696,838857,622638,792204,780444,739328,Ernakulam,Ernakulam,9.96861736259542,76.30114694656488,0,739328.0000000036,739327.9999999997,739328.000000002,739328.0000000064,739328.0000000006
FINE ART EMPORIUM,"6/140, Synagogue Ln, Jew Town, Kappalandimukku, Mattancherry, Kochi, Kerala 682002, India",Kerala,682002,48,0,0,0,0,225,0,0,0,Kochi,Ernakulam,9.957255232894736,76.25402236842105,0,0.0,8.708657145110459e-11,0.0,0.0,0.0
FIVE STAR OFFSET PRINTERS,"Press Kottadayil Building, Near North,, Lakeshore Hospital, Nettoor, Maradu, Kochi, Kerala 682040, India",Kerala,682040,925,950,1192,0,0,3000,0,0,0,Kanayannur,Ernakulam,9.923889512121212,76.31571828181819,0,0.0,8.714889923955339e-11,0.0,0.0,0.0
FLOW LINK SYSTEMS P. LTD.,"189 Uthupalayam, Avinashi Rd, Arasur, Uthupalayam, Tamil Nadu 641407, India",Tamil Nadu,641407,5613,85473,139120,26399,15570,45971,44887,13230,49044,Palladam,Coimbatore,11.076832133333331,77.14018266666666,1,49043.99999999939,49044.0,49043.99999999972,49043.99999999839,49043.99999999957
FLOWER KNITTING MILLS,"487V+23V, 50 Feet Rd Lakshmi Nagar, Bridge Way Colony Extension, Tiruppur, Tamil Nadu 641602, India",Tamil Nadu,641602,78111,7980,10761,3102,30460,2970,0,0,0,Tiruppur,Coimbatore,11.121108205263155,77.34359659473684,1,0.0,3.641727472439795e-12,0.0,0.0,0.0
FLUID PUMPS AND EQUIPMENT INDIA PVT LTD.,"Fluid Pumps & Equipment India Pvt Ltd 7/222, Nagamanaickenpalayam, Sakthi Nagar, Pattanam, Coimbatore, Sakthi Nagar, Tamil Nadu 641016, India",Tamil Nadu,641016,92456,203859,94244,151394,76823,85381,48660,17550,0,Coimbatore South,Coimbatore,10.994242742857145,77.05289665714285,1,0.0,0.0,0.0,0.0,2.9214033708160376e-12
FOAM MATTINGS INDIA LTD.,"beach, Civil Station Ward, Alappuzha, Kerala 688012, India",Kerala,688012,21414,45613,7571,0,7497,0,8161,0,0,Ambalapuzha,Alappuzha,9.490780478571429,76.32486257142857,0,0.0,6.722660215185653e-11,0.0,0.0,0.0
FOCUS APPARELS,"AV Building, Cherattukuzhi Road, Down Hill, Malappuram, Kerala 676519, India",Kerala,676519,15887,17386,2342,3200,740,0,1322,0,0,Ernad,Malappuram,11.05071221125,76.03817599,3,0.0,6.714143296245605e-11,0.0,0.0,0.0
FOODCO DELICASIES INDIA P.LTD.,"R8MQ+C3G, Cherthala - Arookutty Rd, Panavally, Kerala 688526, India",Kerala,688526,886832,1146108,1041544,449007,116411,0,0,0,177573,Cherthala,Alappuzha,9.806103366981132,76.35243924716981,0,177573.00000000172,177573.00000000166,177573.0000000028,177573.00000000175,177573.00000000044
FOOT WELL EXIM,"Aravankara - Mini Ootty - Arimbramala Rd, Pookkottur, Kerala 676517, India",Kerala,676517,35874,0,24684,35365,87075,104408,257905,79068,0,Ernad,Malappuram,11.081878113043478,76.06632696956521,3,0.0,0.0,0.0,0.0,0.0
FRESCO GARMENTS,"1A, Pugazhum perumalpuram, 3rd street Kumarananthapuram, Vengatappa Gounder Layout, Kumarnathapuram, Tiruppur, Tamil Nadu 641602, India",Tamil Nadu,641602,1580,3888,0,0,0,0,0,12,0,Tiruppur,Coimbatore,11.121108205263155,77.34359659473684,1,0.0,8.535733878335452e-11,0.0,0.0,0.0
FRIENDS MARINE INDUSTRIES,"R8C3+Q4R Between konkery bridge and Railway cross, Vattathara, Ezhupunna, Kerala 688537, India",Kerala,688537,356920,325700,421164,368550,250700,160372,621494,733560,511870,Cherthala,Alappuzha,9.82172572,76.30522974,0,511870.0000000017,511870.0000000004,511870.0000000014,511870.00000000297,511870.0000000001
FUCHSIA GARMENTS,"Sf No:14/2, Parapalayam, Mangalam Road, Mangalam Road, near Mps Theatre, Vadkuthottam, Parapalayam, Karuvampalayam, Tiruppur, Tamil Nadu 641604, India",Tamil Nadu,641604,1750,0,0,0,0,0,0,0,0,Tiruppur,Coimbatore,11.096187535483873,77.34985892258065,1,0.0,8.56179050085329e-11,0.0,0.0,0.0
G.K.S BUSINESS ASSOCIATES,"GKS COMPLEX, 4/450 , AROOKUTTY FERRY ROAD , AROOR 688534, Aroor gram panchayat, Kochi, Kerala 688534, India",Kerala,688534,2079372,1709738,1532460,1493552,1720703,4568320,3250417,3518061,2290801,Cherthla,Alappuzha,9.871729377142858,76.30438504,0,2290801.000000013,2290800.999999999,2290801.00000001,2290801.000000026,2290801.000000002
G.M.EXPORT HOUSE,"48PM+X9X, Unnamed Road, Mahavishnu Nagar, Pitchampalayam Pudur, Tiruppur, Tamil Nadu 641603, India",Tamil Nadu,641603,19310,30145,14774,7895,1284,0,0,0,0,Tiruppur,Coimbatore,11.135501066666668,77.34238386666667,1,0.0,8.621383697535756e-11,0.0,0.0,0.0
G.P.TEXTILES,"X349+QM7, Anna Nagar, Karur, Tamil Nadu 639001, India",Tamil Nadu,639001,20974,18317,10179,11844,11765,8817,34088,0,0,Karur,Karur,10.959860798571428,78.07532323285714,1,0.0,1.445678004098151e-11,0.0,0.0,0.0
G.R.B.DAIRY FOODS P.LTD.,"PHASE I & II, SIDCO Industrial Estate, Sipcot Ph. I, Hosur, Tamil Nadu 635126, India",Tamil Nadu,635126,8584,0,0,0,0,0,0,0,0,Hosur,Krishnagiri,12.752449386666664,77.80389044666667,1,0.0,7.900420832530966e-11,0.0,0.0,0.0
GAJENDRA AGENCIES,"52, Bharathi Nagar, 1st St, Bharathi Nagar, Raja Nagar, Ganapathy, Coimbatore, Tamil Nadu 641006, India",Tamil Nadu,641006,23072,22610,22300,23951,23566,0,0,0,0,Coimbatore North,Coimbatore,11.059443936363635,76.99888995,1,0.0,4.783758101220976e-11,0.0,0.0,0.0
GALAXY GARMENTS,"12, Therkku Thottam Odai Rd, Karuvampalayam, Tiruppur, Tamil Nadu 641604, India",Tamil Nadu,641604,6640,0,0,0,0,11983,0,0,0,Tiruppur,Coimbatore,11.096187535483873,77.34985892258065,1,0.0,7.138077091327138e-11,0.0,0.0,0.0
GANGAI GARMENTS,"S F No-217/I, Gangai Gardens, Kavilipalayam Road, Sirupooluvapatti, Gandhi Nagar, Gandhi Nagar, SBI Colony, Gandhinagar, Velampalayam, Tiruppur, Tamil Nadu 641603, India",Tamil Nadu,641603,23362,8489,0,0,0,0,0,0,0,Tiruppur,Coimbatore,11.135501066666668,77.34238386666667,1,0.0,6.376012899814368e-11,0.0,0.0,0.0
GANGO GARMENTS,"487C+5VP, Vivekananda Nagar, Sri Vidya Nagar, Tiruppur, Tamil Nadu 641603, India",Tamil Nadu,641603,1025,0,0,1918,7745,0,5249,0,0,Tiruppur,Coimbatore,11.135501066666668,77.34238386666667,1,0.0,6.993616849638489e-11,0.0,0.0,0.0
GARTEX EXPORTS (INDIA) P. LTD.,"2H26+HH8, Kangayam Rd, opp. Telephone exchange, Kalimedu, Tiruppur, Kangeyam, Tamil Nadu 638701, India",Tamil Nadu,638701,1963,2237,0,10104,2263,2522,21212,60390,48326,Kangayam,Erode,11.008906164814816,77.55643352407408,1,48325.99999999894,48325.99999999955,48325.99999999932,48325.99999999808,48325.99999999949
GATES WEARS ,"362/3A, PUDUPALAYAM Nachipalayam post Vijayapuram via, Kangayam Rd, Tiruppur, Tamil Nadu 641606, India",Tamil Nadu,641606,147392,192556,287897,471404,596863,340276,480098,324111,288056,Tiruppur,Coimbatore,11.108007883333332,77.3994223,1,288056.0000000015,288055.9999999993,288055.9999999999,288056.0000000018,288056.0
GAYATHRI MATCH INDUSTRIES,"police quarters, opposite KR bakery, Agraharam, Singanallur, Coimbatore, Tamil Nadu 641005, India",Tamil Nadu,641005,47755,0,0,30050,0,0,0,0,0,Coimbatore South,Coimbatore,11.015121747058824,77.01368662941177,1,0.0,0.0,0.0,0.0,0.0
GEEKAY SPECIALITY CHEMICALS,"Thrissur,, Ollur Industrial Estate, Ollur, Thrissur, Kerala 680306, India",Kerala,680306,76730,149280,8204,41480,34770,10191,53368,54560,16197,Ollur,Thrissur,10.478034959756098,76.24069400365853,0,16196.999999998685,16196.999999999209,16196.99999999934,16196.999999998216,16196.999999999554
GEENA GARMENTS,"410,r.k nagar,pitchampalayam pudur post, PN Rd, Raja Nagar, Pitchampalayam Pudur, Tiruppur, Tamil Nadu 641602, India",Tamil Nadu,641602,83021,193211,56109,6284,0,0,0,0,0,Tiruppur,Coimbatore,11.121108205263155,77.34359659473684,1,0.0,1.2279781281696628e-10,0.0,0.0,1.378495602453753e-10
GEM EXPORTS & IMPORTS,"S.F NO.278 & 279, Sundharam Nagar West, Erode Main Road, Andankoil West, Karur, Tamil Nadu 639002, India",Tamil Nadu,639002,3713,19788,9823,7300,0,0,0,0,25714,Aravakurichi,Karur,10.96040589130435,78.06453304347826,1,25713.99999999888,25713.99999999953,25713.999999999283,25713.999999997934,25713.999999999498
GENE APPARELS,"331/4t, 15, 15 Velampalayam Main Rd, Periyar Colony, Velampalayam, Tiruppur, A.Thirumuruganpoondi, Tamil Nadu 641652, India",Tamil Nadu,641652,71574,64595,58036,44294,23866,29153,364,15278,21255,Tiruppur,Coimbatore,11.1398791,77.31429145,1,21254.99999999908,21254.99999999957,21254.99999999937,21254.999999998123,21254.999999999527
GENERAL RUBBERS,"MGHX+HMC, Industrial Estate Rd, Ettumanoor, Kerala 686631, India",Kerala,686631,162391,223085,2277826,1274609,5940,630418,2075433,2374803,2633256,Kottayam,Kottayam,9.673597835897436,76.55975298397436,0,2633256.000000014,2633256.0000000093,2633256.00000001,2633256.000000018,2633256.000000002
GEO SEAFOODS,"Pallichal Road, Valummel, Pallichal, Kochi, Kerala 682005, India",Kerala,682005,4423302,2951520,3717165,4108617,3337145,3093427,3093498,3323084,2923359,Kochi,Ernakulam,9.940253061111113,76.25960161388889,0,2923359.000000024,2923359.000000002,2923359.000000012,2923359.000000036,2923359.0000000047
GEORGE ENGINEERING,"Muringoor P. O, Chalakudy, Thrissur, 78PR+M94, Muringur Vadakkummuri, Kerala 680316, India",Kerala,680316,29355,7230,11637,6200,435,3900,0,0,430,Muringur Vadakkummuri,Thrissur,10.2831677,76.3388184,0,429.9999999988873,429.99999999951575,429.9999999992046,429.9999999978054,429.9999999994681
GILBARCO VEEDER ROOT INDIA PVT LTD,"W4, Chettipalayam Rd, near L&T Campus, Srinivasa Nagar, Eachanari, Malumichampatti, Podanur, Tamil Nadu 641021, India",Tamil Nadu,641021,241608,127726,182177,34196,0,37682,39109,293459,191255,Coimbatore South,Coimbatore,10.93864634,76.9795388,1,191254.99999999985,191255.00000000032,191255.00000000044,191254.9999999993,191254.99999999965
GLENROCK RUBBER PRODUCTS P. LTD.,"Mallikassery, Kerala 686577, India",Kerala,686577,3255796,3770304,3643845,4089577,3886740,3383469,5380919,2875188,3718903,Meenachil,Kottayam,9.640891316,76.737008176,0,3718903.0000000233,3718903.0,3718903.0000000144,3718903.000000044,3718903.0000000065
GLOBAL EXPORTERS,"2nd Floor,307/C6,KSIE Building Cochin InternationalContainer Freight Staton, Old Anavathil Jn ICTT Road, P.O, Udyogamandal, Kalamassery, Kochi, Kerala 683501, India",Kerala,683501,1188834,1496717,1106699,1132793,1400630,1781684,2283208,1598362,2379745,Ernakulam,Ernakulam,10.065396075,76.305478,0,2379745.0000000084,2379744.9999999995,2379745.0000000084,2379745.00000002,2379745.0000000033
GLOBAL LIGHTING TRADES ,"G635+RX6, Kanjirangady, Koorkenchery, Thrissur, Kerala 680007, India",Kerala,680007,10052,9277,8314,2846,4992,3018,9880,3968,0,Koorkenchery,Thrissur,10.497142351612904,76.20759540645162,0,0.0,7.81212909484517e-11,0.0,0.0,0.0
GLOBEX GLOVES,"3F3J+62X, Vengola, Kerala 683556, India",Kerala,683556,5512,0,0,0,0,0,0,0,0,Kunnathunad,Ernakulam,10.083125960465116,76.47373215813954,0,0.0,8.197717821276383e-11,0.0,0.0,0.0
GOKILAA GARMENTS,"Old No: 3/306/C, S.F.No: 302/2A1, - , Kuppandampalayam, Koolipalayam Ring Rd, AB Nagar, Veerapandi, Tiruppur, Tamil Nadu 641605, India",Tamil Nadu,641605,23748,26094,47789,2747,14400,2338,13509,7253,12216,Kangayam,Erode,11.1207516,77.335338875,1,12215.99999999903,12215.999999999678,12215.999999999369,12215.999999997945,12215.999999999494
GOKUL KNIT FABS,"kuppandampalayam, 3/547, Balaji Nagar, Veerapandi, Tiruppur, Tamil Nadu 641605, India",Tamil Nadu,641605,1757,16566,7579,0,0,0,0,48143,0,Kangayam,Erode,11.1207516,77.335338875,1,0.0,1.305832527436058e-10,0.0,0.0,0.0
GOLD STAR EXPORTS,"No. 11, Dharga Rd, Dadashamakan, Jamalia, Chennai, Tamil Nadu 600012, India",Tamil Nadu,600012,52500,0,0,0,0,0,0,0,0,Perambur Purasawalkam,Chennai,12.808351972727271,79.92574654545454,2,0.0,3.6503900520154446e-11,0.0,0.0,0.0
GOLDEN STITCH EXPORTS,"JHFH+M8V, Vatakara - Nadapuram - Thottilpalam Rd, Chorode, Kerala 673103, India",Kerala,673103,18333,16038,14606,2967,3884,2148,3092,0,0,Vadakara,Kozhikode,11.595530684615383,75.58199736153846,3,0.0,9.231519895621282e-11,0.0,0.0,0.0
GOOD EARTH ORGANIC,"5CFP+MQ4, Enchackal Kavala, Kalady, Kerala 683574, India",Kerala,683574,49600,71150,143500,266012,124144,165696,183617,130362,96000,Aluva,Ernakulam,10.182817160958905,76.45845344931507,0,95999.99999999994,95999.99999999945,95999.99999999929,95999.99999999936,95999.99999999964
GOODWILL APPARELS,"11-A, Kottai Thottam, near Sivan Theatre Road, Postal Colony, North, Tiruppur, Tamil Nadu 641602, India",Tamil Nadu,641602,3949,15552,12304,0,6380,3714,958,2009,855,Tiruppur,Coimbatore,11.121108205263155,77.34359659473684,1,854.9999999988675,854.9999999995404,854.9999999992331,854.9999999978103,854.999999999471
GOWARTHINI EXPORTS,"Sf No-648/2, Palladam Road, Back To Sriprathi Weigh Bridg, Veerapandi Post, Palladam Main Rd, Karuppa Gaundanpalayam, Tiruppur, Tamil Nadu 641605, India",Tamil Nadu,641605,390,736,0,321,0,960,365,0,6582,Kangayam,Erode,11.1207516,77.335338875,1,6581.999999998846,6581.999999999509,6581.999999999195,6581.9999999978,6581.99999999947
GRACY INCORPORATION,"2/1083-a 1, N V B Lay Out, Murunga Palayam Via, Andipalayam Villa, Murunga Palayam, KPN Colony, Valipalayam, Tiruppur, Tamil Nadu 641608, India",Tamil Nadu,641608,9215,766,0,0,0,0,0,0,0,Valipalayam,Tiruppur,11.0773235,77.36649935,1,0.0,7.830850638778759e-11,0.0,0.0,0.0
GRAND MARINE FOODS,"II/750A, Industrial Development Area, Aroor gram panchayat, Kochi, Kerala 688534, India",Kerala,688534,2555566,3384406,4562248,3752211,3049601,2050189,2992720,2872575,2119800,Cherthla,Alappuzha,9.871729377142858,76.30438504,0,2119800.000000024,2119800.0000000075,2119800.000000013,2119800.000000031,2119800.000000004
GRANDMAS FOOD PRODUCTS,"Peringuzha, XJ52+MH5, Perumpalloor P.O., Peringuzha, Ernakulam, Muvattupuzha, Kerala 686673, India",Kerala,686673,818592,773251,1014785,850994,944196,1323558,806152,719376,1238894,Muvattupuzha,Ernakulam,9.98582857409836,76.58100003016393,0,1238894.0000000063,1238894.000000001,1238894.000000005,1238894.0000000102,1238894.0000000014
GRASS GREEN CLOTHING,"2, Mariamman Kovil St, Anupparpalayam Pudur, Tiruppur, A.Thirumuruganpoondi, Tamil Nadu 641602, India",Tamil Nadu,641602,1064,12544,9633,64211,149140,17026,43188,47034,45028,Tiruppur,Coimbatore,11.121108205263155,77.34359659473684,1,45027.99999999918,45027.9999999994,45027.99999999922,45027.99999999833,45027.999999999556
GREAT INDIAN TEXTILES,"W86X+8XH, Kannur - Alavil - Valapattanam Rd, Chirakkal, Kerala 670009, India",Kerala,670009,48071,7130,6497,9965,6281,13952,22675,15486,3382,Kannur,Kannur,11.920890711320755,75.3293386,3,3381.999999998898,3381.9999999994543,3381.9999999991933,3381.999999997875,3381.99999999947
GREAT WIN EXPORTS,"24, E92, Kalai Nagar 13th W St, Kamaraj Nagar, Thiruvanmiyur, Chennai, Tamil Nadu 600041, India",Tamil Nadu,600041,308542,909840,2429440,2892300,2936634,2358728,498000,214750,2426605,Chennai City Corporation,Kanchipuram,12.979668667676767,80.25791996868686,2,2426605.0000000186,2426605.0000000047,2426605.0000000065,2426605.0000000224,2426605.000000004
GREEN FIELD APPARELS,"4/353, Pappa Nagar, 2nd Street, Pitchampalayam Pudu Post, Lakshmi Nagar, Lakshmi Nagar, Tirupur, Guduvancheri, Tamil Nadu 641602, India",Tamil Nadu,641602,6907,3626,0,85909,19431,1557,8527,16016,4378,Tiruppur,Coimbatore,11.121108205263155,77.34359659473684,1,4377.999999998922,4377.99999999933,4377.999999998976,4377.999999997931,4377.9999999994725
GREEN INDIA EXPORTS,"90, Palaghat Rd, Pollachi, Tamil Nadu 642001, India",Tamil Nadu,642001,95945,328336,248150,194040,260705,295045,397627,392460,373037,Pollachi,Coimbatore,10.649983639130436,77.0488457,1,373037.0000000005,373036.9999999999,373037.0000000009,373037.0000000016,373037.0
GREEN METHOD ENGINEERING P.LTD.,"ATC Building, Moolepadam Nagar Road HMT Junction, Kalamassery, HMT Junction, Moolepadam Nagar, South Kalamassery, Kalamassery, Kochi, Kerala 683104, India",Kerala,683104,13750,3400,10295,7000,3900,2500,0,7750,1250,Kanayannur,Ernakulam,10.057542963636363,76.31917809090909,0,1249.999999998892,1249.9999999995305,1249.9999999991992,1249.9999999978054,1249.999999999462
GREEN VALLEY CONDIMENTS,"Aluva - Mala Rd, Ayroor, Attupuram, Kerala 683579, India",Kerala,683579,32590,0,0,11857,6854,17524,30094,109227,45093,Paravur,Ernakulam,10.180445387272728,76.31635012181819,0,45092.99999999898,45092.999999999534,45092.99999999932,45092.99999999811,45092.99999999946
GREEN WORLD COIR EXPORTS,"1/335, Rose St, Fort Nagar, Fort Kochi, Kochi, Kerala 682001, India",Kerala,682001,1402100,1718000,988000,675330,676000,338000,259000,182000,0,Kochi,Ernakulam,9.961975513432836,76.24336774328359,0,1.2727468555657919e-09,0.0,2.442283228015081e-09,2.9314999120811503e-09,7.872435761808658e-10
GREENLEAF EXTRACTIONS PVT LTD,"Plot No: 15, KINFRA HI-TECH Park, Opp Co-operative Medical College, P.O, HMT Colony, North Kalamassery, Kalamassery, Kochi, Kerala 683503, India",Kerala,683503,73243,129849,145582,187943,235841,271274,248924,201267,319738,Kanayannur,Ernakulam,10.0582879625,76.337153153125,0,319738.00000000035,319737.99999999965,319738.00000000023,319738.0000000008,319737.9999999999
GREENWAY EXIMS,"476/1B, K.Chettipalayam, Dharapuram Road, Jothi Nagar, K Chettipalayam, Tiruppur, Tamil Nadu 641608, India",Tamil Nadu,641608,11106,90594,0,0,0,7655,51712,115468,60945,Chettipalayam,Tiruppur,11.0773235,77.36649935,1,60944.99999999877,60944.99999999947,60944.9999999995,60944.99999999828,60944.99999999953
GREETINGS KNITWEAR,"7/11, T S R Layout, 1st Street, Kongu Main Road, Kongu Main Road, Tiruppur, Tamil Nadu 641607, India",Tamil Nadu,641607,5107,54127,73908,135523,133407,170399,182238,354357,399106,Tirupur,Coimbatore,11.1214821,77.36035476666666,1,399106.0000000001,399105.9999999999,399106.0000000004,399106.00000000064,399105.99999999977
GRIPPO POLYMERS,"XXX7+GXF, Edappally - Panvel Hwy, Kerala 676508, India",Kerala,676508,3223,0,0,0,0,0,0,0,0,Tirurangadi,Malappuram,11.054313333333331,75.93619846,3,0.0,8.419238917382585e-11,0.0,0.0,0.0
GRN ENTERPRISES LLP,"X745+262, 1st Main Rd Sandeep Ave, Sandeep Avenue, Sakthimoorthiamman Nagar, Palavakkam, Chennai, Tamil Nadu 600041, India",Tamil Nadu,600041,444500,156000,0,0,28000,0,40854,0,0,Chennai City Corporation,Kanchipuram,12.979668667676767,80.25791996868686,2,0.0,0.0,0.0,0.0,2.1708903140512203e-10
HAILSTONE INNOVATIONS,"Kinfra Industrial Park, Kanjikode, Kinfra Textile Park, Kerala 678621, India",Kerala,678621,75422,5922,127,0,0,14128,0,5759,39907,Palakkad,Palakkad,10.801037787179489,76.76718873076923,1,39906.99999999892,39906.99999999948,39906.99999999931,39906.999999998,39906.99999999951
HANDICRAFTS DEVE. CORPN. OF KERALA LTD.,"Kerala, India",Kerala,682002,255,107,90,343,450,411,0,0,355,Kochi,Ernakulam,9.957255232894736,76.25402236842105,0,354.9999999988377,354.99999999950467,354.99999999917674,354.9999999977685,354.9999999994613
HAREY KRISHNA TRADERS,"S.NO,10, NEAR RAMANUIJA RAGAR), Kamarajar Rd, Gandhipudur, Lakshmi Ammal Layout, Lakshmipuram, Uppilipalayam, Coimbatore, Tamil Nadu 641015, India",Tamil Nadu,641015,4234,1362,3316,0,0,0,0,0,0,Coimbatore South,Coimbatore,11.01292837,77.02185572,1,0.0,9.201380887793798e-11,0.0,0.0,0.0
HARIKRISH AGENCIES&MANUFACTURES,"137, Subramanyam Road, R.S. Puram, Coimbatore, Tamil Nadu 641002, India",Tamil Nadu,641002,200,0,0,0,0,0,0,2824,0,Coimbatore South,Coimbatore,11.010469648529412,76.95122688088236,1,0.0,8.866376536866207e-11,0.0,0.0,0.0
HARIKRISHNA AYURVEDIC REMEDIES,"Kattakkada Road, near Ayyappa Temple, Balaramapuram, Kerala 695501, India",Kerala,695501,1000,0,0,0,0,0,0,0,0,Neyyattinkara,Thiruvananthapuram,8.430515920588235,77.0233470007353,0,0.0,8.634372773496213e-11,0.0,0.0,0.0
HARROW EXPORTS,"585H+249,  , Sankarapuram, Choolaimedu, Chennai, Tiruppur, Tamil Nadu 641652, India",Tamil Nadu,641652,5618,5698,2084,1676,1046,0,0,200,0,Tiruppur,Coimbatore,11.1398791,77.31429145,1,0.0,8.227280603468177e-11,0.0,0.0,0.0
HASEENA APPARELS,"NO:50, LAKSHMI BUILDING, Tiruppur - Kangayam Rd, opp. BSNL EXCHANGE, Rajiv Nagar, Karuvampalayam, Tiruppur, Tamil Nadu 641604, India",Tamil Nadu,641604,4869,11745,8118,3200,0,0,0,0,0,Tiruppur,Coimbatore,11.096187535483873,77.34985892258065,1,0.0,9.598995947762037e-11,0.0,0.0,0.0
HERBAL ISOLATES P. LTD.,"XCVM+QPG, Aikaranad North, Kerala 682310, India",Kerala,682310,1362951,1440981,1693404,1331492,1435757,1467381,1663826,1537188,1815017,Kunnathunad,Ernakulam,9.98790642,76.430152955,0,1815017.0000000105,1815017.0000000023,1815017.000000008,1815017.0000000168,1815017.0000000023
HI STYLE EXPORTS,"Bus stop, Bus Stop, College Rd, near Konganagiri, Odakkadu, Tiruppur, Tamil Nadu 641602, India",Tamil Nadu,641602,44538,7416,576,0,5096,0,0,0,0,Tiruppur,Coimbatore,11.121108205263155,77.34359659473684,1,0.0,4.044282472536729e-11,0.0,0.0,0.0
HIC-ABF SPECIAL FOODS P.LTD.,"Project Colony Road, Industrial Development Area, Aroor, Aroor gram panchayat, Kochi, Kerala 688534, India",Kerala,688534,649689,511180,777811,795113,1079221,537258,416524,865475,1156318,Cherthla,Alappuzha,9.871729377142858,76.30438504,0,1156318.0000000056,1156318.0000000014,1156318.0000000035,1156318.000000008,1156318.0000000014
HIGH SEAS EXIM,"National Highway 47, Chandiroor, Kerala 688535, India",Kerala,688535,1912818,1509293,2075214,2523085,1897481,1779017,1269460,1267645,802583,Cherthala,Alappuzha,9.8564922,76.32294531666666,0,802583.0000000119,802583.0000000003,802583.0000000033,802583.0000000144,802583.0000000015
HINDUSTAN TEXTILES,"VSS Complex, Mettupalayam Rd, Daniel Nagar, Thoppampatti Pirivu, K. Vadamadurai, Kurudampalayam, Coimbatore, Tamil Nadu 641017, India",Tamil Nadu,641017,36932,17415,29045,29487,21503,15768,38775,9416,10689,Coimbatore North,Coimbatore,11.088758233333332,76.9390758,1,10688.999999999009,10688.999999999503,10688.999999999229,10688.999999997995,10688.999999999496
HOCH BIOTECH,"Annanad Post, Chalakudy, 78HC+7F8, Thrissur, Annanad, Kerala 680309, India",Kerala,680309,6125,0,0,0,0,0,0,0,0,Mukundapuram,Thrissur,10.27446588125,76.32397074375,0,0.0,8.138393910436234e-11,0.0,0.0,0.0
HOLMARC OPTO-MECHATRONICS PVT LTD,"B.7, HMT Rd, Industrial Estate, P.O, Kalamassery, Kochi, Kerala 683503, India",Kerala,683503,2808,3167,1348,3043,1140,0,3167,2732,2388,Kanayannur,Ernakulam,10.0582879625,76.337153153125,0,2387.999999998843,2387.9999999995,2387.999999999183,2387.999999997792,2387.9999999994648
HONEY AQUA SEAFOODS,"3, 3rd Cross Rd, Bharathiyar Street, North Gandhi Gramam, Karur, Senapiratti, Tamil Nadu 639004, India",Tamil Nadu,639004,549764,152480,0,0,0,0,0,0,0,Karur,Karur,10.94863458,78.09967134,1,0.0,0.0,0.0,0.0,2.1200349959008545e-10
HONEY WELL CREATION,"49M4+5C6, KN Palayam, Kanjam Palayam Pirivu, Tiruppur, Tamil Nadu 641607, India",Tamil Nadu,641607,1382,7908,32563,7371,14696,42560,19525,244453,274787,Tirupur,Coimbatore,11.1214821,77.36035476666666,1,274786.99999999953,274787.0,274787.0000000002,274786.99999999936,274786.99999999965
HOTEL RESIDENCY TOWER,"South Gate of Secretariat, Press Rd, Statue, Palayam, Thiruvananthapuram, Kerala 695001, India",Kerala,695001,180,0,0,0,0,0,0,0,0,Thiruvananthapuram,Thiruvananthapuram,8.49500495595238,76.95102814523808,0,0.0,8.713729391585809e-11,0.0,0.0,0.0
HYDRO PRESS INDUSTRIES,"SF no: 378/3, 279/1, PO, Ganesh Nagar, Malumichampatti, Tamil Nadu 641050, India",Tamil Nadu,641050,14065,0,7223,49650,0,0,9800,0,0,Coimbatore,Coimbatore,10.9198972,76.9985741,1,0.0,0.0,0.0,0.0,0.0
HYKA POLYURETHANELS,"23G4+J3V, Malappuram, Kerala 676528, India",Kerala,676528,62500,20334,11495,0,0,0,0,0,0,Tirurangadi,Malappuram,11.029406320930232,76.03106219069767,3,0.0,5.559775283966349e-11,0.0,0.0,0.0
IDUMBAN KNITTERS,"18D, AB Nagar, Velampalayam, Tiruppur, Tamil Nadu 641603, India",Tamil Nadu,641603,5292,0,3181,0,0,0,850,987,0,Tiruppur,Coimbatore,11.135501066666668,77.34238386666667,1,0.0,9.047159015616702e-11,0.0,0.0,0.0
ILLICKAL EXPORTS,"Illikkal Kallu, Illikkal Kallu Rd, Moonnilavu, Poonjar Vadakkekara, Kerala 686586, India",Kerala,686586,378,0,0,0,0,0,0,0,0,Meenachil,Kottayam,9.7493429375,76.78570731875,0,0.0,8.694567671608078e-11,0.0,0.0,0.0
IMPEL MACHINES P.LTD.,"SF.NO:-343.DR.UDAYAMOORTHY NAGAR,NEAR, Thadagam Main Rd, Luna Nagar, Edayarpalayam, Coimbatore, Tamil Nadu 641025, India",Tamil Nadu,641025,5500,5000,27950,7000,5500,0,0,0,0,Coimbatore North,Coimbatore,11.038392615384616,76.92818573846154,1,0.0,1.3623477487663056e-10,0.0,0.0,0.0
INDIAN AQUATIC PRODUCTS,"Sakthikulangara, Kollam, Kerala 691581, India",Kerala,691581,830924,1020091,773433,625616,330490,157269,304300,566700,362700,Kollam,Kollam,8.928226436363635,76.54678488181818,0,362700.0000000018,362700.0000000004,362700.0000000022,362700.0000000034,362700.00000000035
INDIAN FRESH POLLACHI COCONUT EXPORTS,"Palaghat, Pollachi, Tamil Nadu 642001, India",Tamil Nadu,642001,69000,32590,109437,0,56500,70000,390500,239050,114200,Pollachi,Coimbatore,10.649983639130436,77.0488457,1,114199.9999999996,114199.99999999978,114199.99999999984,114199.9999999992,114199.99999999956
INDIAN MARINE INDUSTRIES,"W779+J78, Nambiapuram Rd, Palluruthy, Kochi, Kerala 682006, India",Kerala,682006,6308500,6123040,7013052,9421110,4616990,2889470,3339626,2137854,3617350,Kochi,Ernakulam,9.917652551851852,76.27326455925926,0,3617350.000000037,3617350.0000000014,3617350.0000000126,3617350.0000000536,3617350.0000000093
INDO TEXNOLOGY P.LTD.,"229/5C Irugur, to, Chinniyampalayam Road, Arasamarath Thottam, Athappagoundenpudur, Coimbatore, Tamil Nadu 641103, India",Tamil Nadu,641103,16660,38790,0,11621,0,0,0,0,0,Mettupalayam,Coimbatore,11.015382333333331,77.06624403333333,1,0.0,4.066629430133452e-11,0.0,0.0,0.0
INDROYAL CRAFTS,"Kinfra Apperal Parks Indroyal, road, Thumba, Thiruvananthapuram, Kerala 695586, India",Kerala,695586,126183,128524,200949,40154,66184,27166,252552,207735,122719,Thiruvananthapuram,Thiruvananthapuram,8.56802360909091,76.84363541818182,0,122718.99999999984,122719.00000000012,122719.00000000016,122718.99999999929,122718.99999999965
INFRA ELEVATORS INDIA,"35/2265A, Infra House, BC Lane, Church Rd, Pallinada, Palarivattom, Kochi, Kerala 682025, India",Kerala,682025,13068,4853,4328,3842,215,500,1406,6399,4842,Ernakulam,Ernakulam,10.000372668965516,76.30783643448275,0,4841.99999999886,4841.999999999509,4841.9999999992015,4841.999999997812,4841.999999999467
INNO MOTION TECHNOLOGIES,"XVI/235, Choornikkara, Aluva, Kerala 683106, India",Kerala,683106,63308,56866,7702,16212,62461,87984,52318,96517,83799,Aluva,Ernakulam,10.080344491666668,76.34267441666667,0,83798.99999999908,83798.99999999945,83798.99999999952,83798.99999999852,83798.99999999955
INSTITUTE OF MOBILE PHONE TECHNOLOGY P.LTD.,"3W93+54W, Chemmad-Thalappara Rd, Muttichira, Moonniyur, Kerala 676311, India",Kerala,676311,525,334,0,0,0,0,0,0,0,Tirurangadi,Malappuram,11.06098252,75.89344396,3,0.0,8.676633401267815e-11,0.0,0.0,0.0
INTEGRATED RUBIAN EXPORTS LTD.,"V8P2+375, Aroor gram panchayat, Kochi, Kerala 688534, India",Kerala,688534,554490,93270,21934,0,0,0,0,0,0,Cherthla,Alappuzha,9.871729377142858,76.30438504,0,0.0,0.0,0.0,0.0,7.408748885441098e-11
INTER COTTONS,"48PJ+3HQ, A Block, Gandhinagar, Velampalayam, Tiruppur, Tamil Nadu 641603, India",Tamil Nadu,641603,12649,6604,15846,3420,46947,66770,43416,0,0,Tiruppur,Coimbatore,11.135501066666668,77.34238386666667,1,0.0,0.0,0.0,0.0,0.0
INTERCON WOOD INDUSTRIES,"Kanjirakkad, Perumbavoor, Kerala 683543, India",Kerala,683543,2887719,1544696,169110,0,0,0,0,481500,159500,Kunnathunad,Ernakulam,10.1228594125,76.48358803125,0,159499.99999999753,159499.99999999662,159500.00000000253,159500.00000000137,159500.00000000044
INTIMATE MACHINES (P) LTD.,"B St, Manvila Industrial Estate, Manvila, Thiruvananthapuram, Kerala 695583, India",Kerala,695583,30805,16206,1712,13400,0,0,0,0,0,Thiruvananthapuram,Thiruvananthapuram,8.401273206976745,77.02988891627906,0,0.0,3.009266212861349e-11,0.0,0.0,0.0
J.B.C. INTERNATIONAL,"SN Junction , Kayal Road Muhamma, J988+P9V, Post, Aryakara, Alappuzha, Muhamma, Kerala 688525, India",Kerala,688525,147911,217221,223286,411215,603350,563298,692253,1006174,998514,Cherthala,Alappuzha,9.619357622727271,76.35883995454545,0,998514.0000000028,998514.0,998514.0000000024,998514.000000006,998514.0000000005
J.P.ESSENTIAL EXPORTS INDIA,"S.F.No.1032/5, Madukkarai Village, Madukkarai, Taluk, Madukkarai, Tamil Nadu 641105, India",Tamil Nadu,641105,1666383,1470853,1945485,817412,323516,528840,719802,1166960,515403,Coimbatore South,Coimbatore,10.913312757142856,76.95360111428572,1,515403.0000000068,515403.0000000044,515403.0000000061,515403.0000000073,515403.00000000047
J.P.P.MILLS P.LTD.,"JPP Mills, Tamil Nadu 637304, India",Tamil Nadu,637304,482861,108856,249186,58512,1547448,421194,372377,46206,277862,Tiruchengodu,Namakkal,11.412183766666669,77.84436346666666,1,277862.00000000256,277861.9999999994,277862.00000000093,277862.0000000021,277862.0000000006
J.R.P.EXPORTS,"2/294, Jeeva nagar,Muthanampalayam (PO Sevanthampalayam, K Chettipalayam, Tiruppur, Tamil Nadu 641606, India",Tamil Nadu,641606,143145,139662,252599,141279,142608,46431,27230,88508,0,Tiruppur,Coimbatore,11.108007883333332,77.3994223,1,0.0,1.5508512998078787e-10,0.0,0.0,0.0
J.R.RUBBER INDUSTRIES,"Thadapparambu, Mulagunnathukavu, Thrissur, Killannur, Kerala 680581, India",Kerala,680581,94735,69711,96998,161021,189558,210798,191656,206275,214178,Thrissur,Thrissur,10.575689350943396,76.22444455660377,3,214178.00000000003,214177.9999999996,214177.99999999985,214177.9999999999,214177.99999999974
J.S.AUTO CAST,"SF No 165/1, Sembagounden Pudur, Kuppepalayam, Tamil Nadu 641107, India",Tamil Nadu,641107,58355,562660,426106,680418,1369894,1240810,1283669,0,22808,Coimbatore South,Coimbatore,11.13275464,77.03421496,1,22808.00000000252,22807.999999997377,22807.999999999243,22808.000000003853,22808.00000000047
J.S.B.KNIT FASHIONS,"39W8+9XF, KNS Subramaniam Nagar, Tiruppur, Tamil Nadu 641605, India",Tamil Nadu,641605,419,8298,2278,0,0,0,0,0,0,Kangayam,Erode,11.1207516,77.335338875,1,0.0,9.213385224730476e-11,0.0,0.0,0.0
JANATHA POLYMERS,"6HWM+972, Kochalummoodu, Vettiyar, Mavelikara, Kerala 690108, India",Kerala,690108,34655,2050,51549,18,315,367,47112,48237,2850,Mavelikkara,Alappuzha,9.249809575,76.5772071375,0,2849.99999999908,2849.999999999712,2849.999999999336,2849.9999999979195,2849.9999999994493
JANSONS BALERS,"F8PQ+R47, Municipal Stadium Ward, Vellakkinar, Alappuzha, Kerala 688011, India",Kerala,688011,1823229,1616034,1505947,1353415,1006784,1035027,1139326,1202181,1163916,Ambalapuzha,Alappuzha,9.494271704545454,76.34375952727272,0,1163916.0000000072,1163916.000000001,1163916.0000000056,1163916.0000000126,1163916.000000002
JAY JAY MILLS(INDIA)P.LTD.,"10 KVP Layout, Alangadu, Karuvampalayam, Tiruppur, Tamil Nadu 641604, India",Tamil Nadu,641604,106525,217707,0,153315,0,91894,0,11999,35788,Tiruppur,Coimbatore,11.096187535483873,77.34985892258065,1,35787.99999999862,35787.999999998865,35787.99999999916,35787.99999999847,35787.99999999962
JAYABHARATH MODERN RICE MILL,"HFVP+R9F, Vadakkencherry Bazar Rd, Amakkulam, Vadakkencherry, Kerala 678683, India",Kerala,678683,1297900,756130,755132,725430,807460,745050,753000,1064810,1006380,Alathur,Palakkad,10.533922295833332,76.49711392083334,0,1006380.0000000048,1006380.0000000002,1006380.0000000036,1006380.0000000084,1006380.0000000009
JAYACHANDRAN ALLOYS P.LTD.,"Ingur - Sipcot Rd, Erode, Tamil Nadu 638056, India",Tamil Nadu,638056,3614314,711628,2410418,1318506,5167754,3550433,10753048,10039537,9838273,Perundurai,Erode,11.239570716666668,77.4940118,1,9838273.000000035,9838273.000000006,9838273.000000035,9838273.000000078,9838273.000000006
JAYAKRISHNA COIRS,"Kalavamkodam Post Office, Thankey Jn. - Saktheeshwaram, Alappuzha, Kerala 688524, India",Kerala,688524,41500,47472,0,12224,15031,62795,197411,219496,316618,Cherthala,Alappuzha,9.6891011625,76.33285069583334,0,316617.99999999936,316617.99999999953,316618.0000000002,316617.99999999977,316617.99999999977
JAYAKUMARAN EXPORTS,"4/440c, Bharathi Nagar, Near Kumaran Ginning Factory,, Veerapandi, Tiruppur, Tamil Nadu 641605, India",Tamil Nadu,641605,25207,41060,90002,96856,110722,97808,73835,108020,152382,Kangayam,Erode,11.1207516,77.335338875,1,152381.99999999968,152381.99999999974,152381.9999999997,152381.9999999991,152381.99999999965
JAYALAKSHMI APPARELS,"48XW+MW6, PN Rd, Raja Nagar, Poyampalayam, Tiruppur, Tamil Nadu 641603, India",Tamil Nadu,641603,11391,0,3099,0,5053,23222,29943,23104,37235,Tiruppur,Coimbatore,11.135501066666668,77.34238386666667,1,37234.99999999894,37234.99999999952,37234.9999999993,37234.99999999802,37234.9999999995
JAYASREE COIR MILLS,"Thanneermukkom Alleppey, Verungumchuvad, Cherthala, Thanneermukkom, Kerala 688527, India",Kerala,688527,33430,122287,93955,132669,323700,466774,195372,183061,85578,Cherthala,Alappuzha,9.663949954545457,76.37130390909091,0,85578.0,85577.99999999926,85577.9999999996,85577.99999999964,85577.99999999962
JEMSONS STARCH AND DERIVATIVES ,"V7PW+VQF, Aroor gram panchayat, Kochi, Kerala 688534, India",Kerala,688534,46090,25000,18000,36000,54000,0,12058,0,0,Cherthla,Alappuzha,9.871729377142858,76.30438504,0,0.0,0.0,0.0,0.0,0.0
JITH TECHNOLOGIES INC.,"Thuravankad, Pullur, Kerala 680683, India",Kerala,680683,228,0,7585,0,0,0,0,0,1427,Mukundapuram,Thrissur,10.337836438512037,76.28693993413566,0,1426.9999999988702,1426.9999999995428,1426.9999999992008,1426.9999999977797,1426.9999999994623
JMS EXPORTS,"Block Office, Road, Kavilpad, Palakkad, Pirayiri, Kerala 678006, India",Kerala,678006,122606,125007,77995,184248,214659,94995,139431,152918,106880,Palakkad,Palakkad,10.776043,76.63281468461538,1,106879.9999999996,106879.99999999926,106879.99999999945,106879.99999999929,106879.99999999968
