,Exporter Name,Address,State,pin,2015,2016,2017,2018,2019,2020,2021,2022,2023,Taluk,District,Latitude,Longitude,Cluster,2024,2025,2026,2027,2028
0,5P HORTIPLEX,"19, 2nd St, Balamurugan Nagar, Anna Nagar Extension, Velachery, Chennai, Tamil Nadu 600042, India",Tamil Nadu,600042,20000,0,0,0,0,0,0,0,0,Chennai City Corporation,Chennai,12.978761057943926,80.19780987663552,2,0.0,0.0,0.0,0.0,0.0
1,A.A.NUTS,"WJMW+7F7, Chandanathope, Mamoodu, Kerala 14, India",Kerala,686012,1346288,0,0,0,0,0,0,0,0,Kottayam,Kottayam,9.54856711111111,76.52230786666667,0,0.0,0.0,0.0,0.0,0.0
2,A.K. AHAMED MODERAN RICE MILL,"P.O, 40/2, Mannarpalayam Main Rd, Allikuttai, Salem, Tamil Nadu 636017, India",Tamil Nadu,636017,214500,48600,0,24000,24000,144685,194590,452294,1653150,Allikuttai,Salem,11.6719252,78.1929386,1,1645093.77,1642331.08,1639827.39,1645150.38,1641540.9
3,A.K.R. TEXTILES,"48W5+XQ9, Velampalayam, A.Thirumuruganpoondi, Tamil Nadu 641652, India",Tamil Nadu,641652,441797,361413,679656,568203,197687,14754,0,2841,0,Tiruppur,Coimbatore,11.1398791,77.31429145,1,0.0,0.0,0.0,0.0,0.0
4,A.M.FISHERIES,"98WW+WWQ, Valanjavazhy, Ambalapuzha, Kerala 688005, India",Kerala,688005,1374800,1961480,2034720,3308895,2385049,1697278,2512818,3724210,3315054,Ambalappuzha,Alappuzha,9.40768399,76.351707025,0,3320661.27,3327103.97,3334188.31,3331083.5,3325607.14
5,A.M.S. TRADING COMPANY,"AMS COMPLEX, VK KADAVU, Road, Nhangattiri, Pattambi, Kerala 679311, India",Kerala,679311,202834,156121,121570,26830,0,14705,0,0,0,Nhangattiri,Pattambi,10.7996557,76.0688529,3,0.0,0.0,0.0,0.0,0.0
6,A.N.P.APPARELS,"48F6+985, MGR Nagar, Sirupooluvapatti, Tiruppur, Tamil Nadu 641687, India",Tamil Nadu,641687,2721,3569,4421,0,0,0,63746,124261,37999,Tiruppur,Coimbatore,11.0980518625,77.309765225,1,38008.67,38016.56,38016.62,38005.12,38011.67
7,A.P. GLOBAL MARKETING,"1/126-E, near Pollachi, Devanurpudur, Tamil Nadu 642207, India",Tamil Nadu,642207,56000,0,55900,0,27000,0,0,0,0,Udaamalpet,Coimbatore,10.544403,77.09328762727273,1,0.0,0.0,0.0,0.0,0.0
8,A.P.ENGINEERS,"Ho, Sipcot Industrial Growth Centre, Plot No-C2, near Water Tank, Perundurai, Tamil Nadu 638052, India",Tamil Nadu,638052,139924,17140,12617,197771,293091,36020,118131,18940,451180,Erode,Erode,11.28118388372093,77.58956259534884,1,450652.86,452703.31,451695.17,452287.68,454202.75
9,A.S.K. APPARELS,"11/1, Periyar Nagar, West, Karur, Tamil Nadu 639002, India",Tamil Nadu,639002,196727,157566,87995,127016,210735,38212,0,0,0,Aravakurichi,Karur,10.96040589130435,78.06453304347826,1,0.0,0.0,0.0,0.0,0.0
10,A.S.M.KNITS,"5, Singaravelu St, T. Nagar, Chennai, Tamil Nadu 600017, India",Tamil Nadu,600017,854,5274,0,0,0,0,0,337,4701,Chennai,Chennai,13.042568160810813,80.23459210743243,2,4695.77,4701.7,4701.79,4701.18,4702.66
11,AARGEE ASSOCIATES,"MINI INDUSTRIAL ESTATE, PLOT NO .5, near POLICE STATION, Manarcadu, Kerala 686019, India",Kerala,686019,793,0,0,0,0,0,0,0,0,Kottayam,Kottayam,9.592533289090907,76.58230555090908,0,0.0,0.0,0.0,0.0,0.0
12,AASHA BIOCHEM,"Chorode Panchayath, Chorode, Vatakara, Kerala 673104, India",Kerala,673104,11002,17868,19680,15760,7350,0,4357,252,0,Vadakara,Kozhikode,11.604201301538462,75.60635570307693,3,0.0,0.0,0.0,0.0,0.0
13,AAZRA MARINE INDUSTRIES,"Bharath Sea Foods Complex, Chandiroor, Alleppey, Kerala 688547, India",Kerala,688547,359290,154585,164533,374660,48000,0,0,0,0,Chandiroor,Alappuzha,9.765011083333333,76.36738138333334,0,0.0,0.0,0.0,0.0,0.0
14,ABAD FISHERIES,"Kochangadi, Chullickal, Kochi, Kerala 682002, India",Kerala,682002,5109702,5314820,5244604,6075897,6054924,3769618,4065985,4882866,5722081,Kochi,Ernakulam,9.957255232894736,76.25402236842105,0,5726728.67,5726183.38,5780520.81,5671600.25,5721211.41
15,ABIRAMI EXPORTS,"Shop No.424, Thadagam Main Rd, Near Milk Society Bus Stop, Near Milk Company, R.S. Puram, Coimbatore, Tamil Nadu 641002, India",Tamil Nadu,641002,393,341,0,0,7200,0,0,0,0,Coimbatore South,Coimbatore,11.010469648529412,76.95122688088236,1,0.0,0.0,0.0,0.0,0.0
16,ABISHEK EXPORTS,"No.9/76F, South Neervakuzhi, Kanyakumari, Palappallam, Tamil Nadu 629159, India",Tamil Nadu,629159,566035,382409,0,151590,249640,427361,95800,29100,28500,Kalkulam,Kanyakumari,8.1852759,77.2497986,0,28499.99,28502.24,28503.73,28506.35,28507.85
17,ABM MARINE PRODUCTS,"19/2084-E, Nambiapuram Rd, Palluruthy, Kochi, Kerala 682006, India",Kerala,682006,461980,352496,549490,1256905,1789051,1459668,2476123,2617996,2059244,Kochi,Ernakulam,9.917652551851852,76.27326455925926,0,2069891.51,2070923.96,2064973.14,2069167.46,2064205.35
18,ACCELERATED FREEZE DRYING CO LTD.,"Accelerated Freeze Drying Co. Ltd. (AFDC, R7CX+HQ6 P.O, Eramallur Ezhupunna Rd, Eramalloor, Ezhupunna, Kerala 688537, India",Kerala,688537,237764,397922,497486,1190201,1061663,655166,892804,1604885,1791322,Cherthala,Alappuzha,9.82172572,76.30522974,0,1788604.6,1788517.97,1787507.46,1785420.4,1788298.99
19,ACTIVE CHAR PRODUCTS P.LTD.,"Binanipuram, Edayar, Kochi, Kerala 683502, India",Kerala,683502,2458952,2065846,1618043,1164078,2760015,3556055,3526565,4538145,4504002,Paravur,Ernakulam,10.087692555555556,76.30506273333334,0,4569775.15,4584338.85,4559567.32,4582952.17,4581191.75
20,ADIL TEXTILES PVT LTD,"Mangalam, Tamil Nadu 641663, India",Tamil Nadu,641663,536432,208759,670153,113005,99740,101161,722293,254500,1062411,Palladam,Coimbatore,11.097379925,77.26562055,1,1057069.65,1061523.7,1060351.79,1059692.55,1059534.81
21,ADITI CREATION,"40, South St, Pethi Chetti Puram, Rayapuram, Tiruppur, Tamil Nadu 641601, India",Tamil Nadu,641601,11599,4508,15642,0,0,0,0,26221,6242,Avinashi,Coimbatore,11.096039183333334,77.27852751666666,1,6248.37,6252.18,6251.16,6249.98,6252.65
22,ADORN GLASS ART,"Near Pampady Gramapanchayth, NH- 220, Pampady Road, Pampady, Kottayam, Pampady, Kerala 686502, India",Kerala,686502,4500,0,0,0,0,0,0,0,0,Kottayam,Kottayam,9.581621149411763,76.63691744941177,0,0.0,0.0,0.0,0.0,0.0
23,ADRASH KNITWEAR,"No: 1/H, Avinashi - Tiruppur Rd, near BBC Petrol Pump, Thaneerpanthal, Anupparpalayam Pudur, Tiruppur, A.Thirumuruganpoondi, Tamil Nadu 641652, India",Tamil Nadu,641652,615,14908,4805,862,193,461,0,0,688,Tiruppur,Coimbatore,11.1398791,77.31429145,1,688.07,686.33,686.26,689.82,687.87
24,AGAPPE DIAGNOSTICS LTD.,"Agappe Hills, Pattimattom PO, Kochi, Kerala 683562, India",Kerala,683562,1185,8412,9937,20185,72695,107682,139982,92458,167822,Aluva,Ernakulam,10.034164772289158,76.42900358072289,0,167856.35,167933.78,167880.62,168097.56,168208.03
25,AGARAM KNITTERS,"No 4/571, Palladam Rd, Veerapandi, Tiruppur, Tamil Nadu 641605, India",Tamil Nadu,641605,7904,0,22424,0,0,0,0,0,0,Kangayam,Erode,11.1207516,77.335338875,1,0.0,0.0,0.0,0.0,0.0
26,AGNI APPARELS,"60, Avinashi - Tiruppur Rd, Kumar Nagar, Park Avenue, Tiruppur, Tamil Nadu 641603, India",Tamil Nadu,641603,49637,68277,81165,32722,91338,20678,66683,17607,14328,Tiruppur,Coimbatore,11.135501066666668,77.34238386666667,1,14334.46,14322.31,14324.94,14326.55,14336.23
27,AGRO BROTHERS COIR CO.,"VCMC+GH, Veppampatti, Tamil Nadu 625534, India",Tamil Nadu,625534,622620,655850,588940,756580,669685,518743,1158989,349734,213095,Bodinayakanur,Theni,9.964452433333332,77.46669595,0,213281.65,213907.67,213177.53,213602.83,213907.35
28,AHILL KNIT EXPORTS,"Shed No. 30, Netaji Apparel Park New, Tiruppur, Tamil Nadu 641666, India",Tamil Nadu,641666,1831,110085,54555,22507,21271,14596,9670,22045,12922,Tirupur,Coimbatore,11.197693457142856,77.3648192,1,12950.12,12961.0,12927.77,12942.3,12943.77
29,AHLL KNIT EXPORTS\,"Shed No. 30, Netaji Apparel Park New, Tiruppur, Tamil Nadu 641666, India",Tamil Nadu,641666,992,0,0,0,0,0,0,0,0,Tirupur,Coimbatore,11.197693457142856,77.3648192,1,0.0,0.0,0.0,0.0,0.0
30,AKAY FLAVOURS & AROMATICS LTD.,"Akanadu, Mudakuzha P.O, Kurichilakodu, Akanad, Kochi, Vengoor West, Kerala 683546, India",Kerala,683546,1386051,1350224,1173974,1052759,1091409,746178,0,0,0,Kunnathunad,Ernakulam,10.1428569,76.52744881481482,0,0.0,0.0,0.0,0.0,0.0
31,AKRUTHI APPARELS,"2/140, Kovil Street, Mangalam Rd, S R Nagar, Tiruppur, Tamil Nadu 641687, India",Tamil Nadu,641687,453889,818242,785932,1014895,977365,330628,709925,549448,578457,Tiruppur,Coimbatore,11.0980518625,77.309765225,1,583083.6,581246.21,584533.38,584059.83,582434.73
32,AKSHARA GARMENTS,"SF No. 12/3,4,5 - 13/1 - 21/1 , Sasthiri Nagar, Erangattur, Mettupalayam, Sathyamangalam - Mettupalayam Main Rd, South Rangasamuthram, Sathyamangalam, Tamil Nadu 638402, India",Tamil Nadu,638402,2032,1261,4764,0,0,0,0,0,0,Sathyamangalam,Erode,11.477104075,77.231386425,1,0.0,0.0,0.0,0.0,0.0
33,ALAIJA RUBBER FACTORY,"5R6W+2FJ, Kashayapadi, Kozhikode, Feroke, Kerala 673631, India",Kerala,673631,14173,7520,7520,7776,15536,7344,7344,0,7344,Kozhikode,Kozhikode,11.175759547619048,75.84226028095239,3,7374.35,7360.89,7364.52,7364.92,7362.95
34,ALAN TECH INDISTRIAL SOLUTIONS,"Mookkannoor Ezhattumugham Rd, Mookkannoor, Kerala 683577, India",Kerala,683577,29970,36866,4083,15260,23660,15818,9775,18465,34075,Aluva,Ernakulam,10.236160537931037,76.41592248045977,0,34017.26,34065.44,34004.43,34027.2,34014.33
35,ALBERTS ARTS COLLECTIONS,"X746+P3V, Jew Town Rd, Jew Town, Kappalandimukku, Mattancherry, Kochi, Kerala 682002, India",Kerala,682002,75,300,90,0,100,0,0,0,0,Kochi,Ernakulam,9.957255232894736,76.25402236842105,0,0.0,0.0,0.0,0.0,0.0
36,ALEX MACHINES,"P838+CP5, Kottaram Jn. Rd, Kadakkarappally, Kerala 688529, India",Kerala,688529,9500,0,0,0,0,0,0,0,0,Cherthala,Alappuzha,9.705020973333331,76.3096675088889,0,0.0,0.0,0.0,0.0,0.0
37,ALLAKKAT INTERNATIONAL,"P.O, Kommady, Thumpoly, Alappuzha, Aryad South, Kerala 688008, India",Kerala,688008,7312,25848,20712,108918,364857,267992,185969,145967,246893,Ambalapuzha,Alappuzha,9.521471733333334,76.3244164,0,244790.28,244976.97,245429.8,244778.27,245195.79
38,ALLEPPEY BALERS P.LTD.,"Alappuzha, Kerala, India",Kerala,682002,5312,0,0,0,27758,0,0,0,0,Kochi,Ernakulam,9.957255232894736,76.25402236842105,0,0.0,0.0,0.0,0.0,0.0
39,ALLEPPEY CO. LTD.,"Alappuzha, Kerala, India",Kerala,688534,4420479,6209642,5164523,5699132,5264683,4868005,5257371,3189816,2040828,Cherthla,Alappuzha,9.871729377142858,76.30438504,0,2063337.69,2063889.98,2064026.76,2060103.12,2059073.43
40,ALPHONSA CASHEW INDUSTRIES,"Puthoor, Kerala 691507, India",Kerala,691507,1878064,1194190,1240144,1312388,1547128,902088,943792,1019626,1298604,Kottarakkara,Kollam,9.043139252830189,76.7161006773585,0,1299973.81,1297591.36,1298424.77,1296183.09,1298239.5
41,AMAZING EXPORT CORPORATION,"SF.No:105,Valayankadu,P.Vadugapalayam Post, Palladam-Dharapuram Rd, Palladam, Tamil Nadu 641664, India",Tamil Nadu,641664,256,1506,138,1960,92,6514,25499,17316,0,Palladam,Coimbatore,10.98807019,77.28173242999999,1,0.0,0.0,0.0,0.0,0.0
42,AMBIKA COTTON MILLS LTD.,"15, Valluvar St, Sivananda Colony, Tatabad, Coimbatore, Tamil Nadu 641012, India",Tamil Nadu,641012,19262,0,0,0,0,443848,171715,1443076,156496,Coimbatore South,Coimbatore,11.020646936,76.962853908,1,156199.94,156021.33,156100.53,155962.68,156112.34
43,ANAND TEXTILES,"W8GX+FX8 Moopanpara, Valapattanam, Kerala 670011, India",Kerala,670011,64532,39979,35548,12025,12925,5462,17344,23519,8321,Kannur,Kannur,11.911786729166668,75.36011997916667,3,8368.81,8378.3,8378.29,8355.55,8361.12
44,ANANDHA FABRICATIONS(CBE)P.LTD.,"Thudiyalur Rd, near Indian Oil Petrol Bunk, Saravanampatti, Coimbatore, Tamil Nadu 641006, India",Tamil Nadu,641006,1750,0,0,0,0,0,0,0,0,Coimbatore North,Coimbatore,11.059443936363635,76.99888995,1,0.0,0.0,0.0,0.0,0.0
45,ANASWARA OFFSET P.LTD,"Edappally Raghavan Pillai Road, Junction, Perandoor, Elamakkara, Kochi, Kerala 682026, India",Kerala,682026,5240,1787,3065,1023,6944,5589,2133,124,8580,Ernakulam,Ernakulam,10.01621266875,76.288820209375,0,8581.92,8575.42,8577.02,8574.28,8569.58
46,ANCHUTHARA FOOD PRODUCTS,"MLA Rd, Poochakkal, Cherthala, Panavally, Kerala 688526, India",Kerala,688526,125309,148841,235584,133054,23109,194717,97182,76726,66718,Cherthala,Alappuzha,9.806103366981132,76.35243924716981,0,66693.51,66810.0,66933.76,66871.05,66873.18
47,ANCHUTHENGIL AGRI SUPPLY,"Anchuthengu, Kerala, India",Kerala,686012,14663,6341,20036,18192,39140,36685,21334,33294,25039,Kottayam,Kottayam,9.54856711111111,76.52230786666667,0,25079.04,25049.78,25036.96,25051.94,25026.42
48,ANGEL CASHEWS,"2QHX+CR5, Thalavoor, Kerala 691560, India",Kerala,691560,15876,0,0,0,0,0,0,0,0,Kottarakara,Kollam,9.04378430952381,76.78092363809523,0,0.0,0.0,0.0,0.0,0.0
49,ANJALA EXPORTS,"VIP Nagar Pandian Nagar East Tiruppur, PN Rd, Mummoorthi Nagar, Tiruppur, Tamil Nadu 641602, India",Tamil Nadu,641602,3604,0,0,0,0,2180,0,0,4515,Tiruppur,Coimbatore,11.121108205263155,77.34359659473684,1,4531.75,4535.24,4529.14,4528.7,4529.02
50,ANJIPARAMBIL ASSOCIATES,"Parambithara Rd, Panampilly Nagar, Kochi, Kerala 682036, India",Kerala,682036,844,0,0,0,0,0,0,0,0,Ernakulam,Ernakulam,9.959980295833333,76.29498357083334,0,0.0,0.0,0.0,0.0,0.0
51,ANTHONY GARMENTS,"No. 3, Athimarathottam, Sirupooluvapatti, Tiruppur, Tamil Nadu 641603, India",Tamil Nadu,641603,32597,56582,18048,0,0,0,10400,0,0,Tiruppur,Coimbatore,11.135501066666668,77.34238386666667,1,0.0,0.0,0.0,0.0,0.0
52,ANUGRAHA FASHION MILL P.LTD.,"Garmenting Division Unit-IINO.932 Dharapuram RoadVattamalai, PO, A.P, Pudur, Kangeyam, Tamil Nadu 638701, India",Tamil Nadu,638701,3675,0,43986,0,0,19374,60812,257663,606151,Kangayam,Erode,11.008906164814816,77.55643352407408,1,606479.67,605369.94,604894.46,605004.6,604555.92
53,ANUSAM APPARELS,"Vengamedu, Poyampalayam, Chettipalayam, Tiruppur, Tamil Nadu 641602, India",Tamil Nadu,641602,35831,28931,0,13624,36133,0,65182,54471,61687,Tiruppur,Coimbatore,11.121108205263155,77.34359659473684,1,61794.16,61772.09,61807.66,61772.3,61732.54
54,AQUA GENO EXIM,"V872+GG9, Keltron Rd, Aroor gram panchayat, Kochi, Kerala 688534, India",Kerala,688534,869736,1312747,1616572,1407420,586870,1100174,2182268,1430007,903955,Cherthla,Alappuzha,9.871729377142858,76.30438504,0,901840.72,900153.15,902733.2,902553.03,898910.58
55,AQUA SEAFOOD(INDIA)P.LTD.,"22/1177, Aroor - Thoppumpady Rd, N.H. 47, Edakochi, Kochi, Kerala 682010, India",Kerala,682010,1648460,1512526,110000,0,0,28000,0,67159,26000,Kochi,Ernakulam,9.9107678,76.29057865833333,0,25996.9,25973.64,26011.87,26003.66,26008.3
56,ARANI EXPORTS,"Arani, Tamil Nadu, India",Tamil Nadu,682024,915,0,0,0,570,0,0,0,1394,Ernakulam,Ernakulam,10.01888763298969,76.30253450412371,0,1391.7,1392.73,1394.69,1393.27,1391.9
57,ARASAN ALUMINIUM INDUSTRIES,"4, Thiruthangal Rd, Thiruthangal, Sivakasi, Tamil Nadu 626123, India",Tamil Nadu,626123,13200,111969,85609,88027,0,0,19088,0,0,Sivakasi,Virudhunagar,9.43491624736842,77.79007205263159,0,0.0,0.0,0.0,0.0,0.0
58,ARBEE AGENCIES,"Thattaveli Palam, Velloor, Kerala 686605, India",Kerala,686605,93440,60160,226843,5742,0,0,0,0,0,Vaikom,Kottayam,9.795920142424242,76.44080179242424,0,0.0,0.0,0.0,0.0,0.0
59,AREM FASHIONS,"S.F.no 56, Dhanas industrial complex Kasipalayam, Main Rd, Kallangadu, Nallur, Tiruppur, Tamil Nadu 641606, India",Tamil Nadu,641606,1145,4658,3986,0,0,0,0,0,10495,Tiruppur,Coimbatore,11.108007883333332,77.3994223,1,10501.12,10499.38,10488.77,10499.27,10498.25
60,ARMSTRONG KNITTING MILLS (P) LTD.,"61-C, Saminathapuram 2nd street, Anupparpalayam, Velampalayam, Tiruppur, Tamil Nadu 641652, India",Tamil Nadu,641652,2881,6820,19611,28766,177615,116227,561146,1211288,996512,Tiruppur,Coimbatore,11.1398791,77.31429145,1,995861.07,994026.68,996033.72,997023.67,996854.48
61,AROMATO EXIM P.LTD.,"458X+7CV, Olavara - Payyanur Rd, Thrikaripur, Kerala 670307, India",Kerala,670307,14402,24000,0,0,0,0,0,0,0,Taliparamba,Kannur,12.131190267272729,75.2246940030303,3,0.0,0.0,0.0,0.0,0.0
62,ARROW KNITS,"8/823, Vigneshwara Nagar, Pooluvapatti, Tiruppur, Tamil Nadu 641603, India",Tamil Nadu,641603,3509,0,0,4486,0,0,0,0,377,Tiruppur,Coimbatore,11.135501066666668,77.34238386666667,1,378.17,378.06,377.52,376.04,376.97
63,ASHJOE COLD CHAIN ESTABLISHMENT,"Road, Aroor gram panchayat, Kochi, Kerala 688534, India",Kerala,688534,1883,0,0,0,0,0,0,0,0,Cherthla,Alappuzha,9.871729377142858,76.30438504,0,0.0,0.0,0.0,0.0,0.0
64,ASMA RUBBER PRODUCTS P. LTD.,"Plot No. 39-B, CSEZ, Kakkanad, Kochi, Kakkanad, Kerala 682037, India",Kerala,682037,3425,0,24994,45713,128215,243965,280246,393150,346467,Ernakulam,Ernakulam,9.997384706451612,76.34072476129032,0,345733.37,345928.53,346476.29,346133.58,345500.96
65,ASSOCIATED TRADERS,"14, Mannar St, T. Nagar, Chennai, Tamil Nadu 600017, India",Tamil Nadu,600017,18195,22661,12759,22992,25687,53849,65764,114883,70736,Chennai,Chennai,13.042568160810813,80.23459210743243,2,70933.61,71012.81,70872.18,70904.13,70890.69
66,ASWATHI EXPORTS,"48Q6+8WF, Velampalayam, Tiruppur, A.Thirumuruganpoondi, Tamil Nadu 641652, India",Tamil Nadu,641652,1655,0,0,0,0,0,0,0,0,Tiruppur,Coimbatore,11.1398791,77.31429145,1,0.0,0.0,0.0,0.0,0.0
67,ASWATHY ENGINEERING WORKS,"Mukkam - Thiruvambady Rd, Agastiamuzhi, Mukkam, Thondimmal, Kerala 673582, India",Kerala,673582,3750,3709,0,2750,0,0,0,0,0,Kozhikode,Kozhikode,11.364234452173912,75.96050992608696,3,0.0,0.0,0.0,0.0,0.0
68,ASWIN ASSOCIATES,"XIII/831, Vikas Rd, Karuvelipady, Thoppumpady, Kochi, Kerala 682005, India",Kerala,682005,544968,926562,1789010,2492715,1925280,1535311,2346347,2176675,1451891,Kochi,Ernakulam,9.940253061111113,76.25960161388889,0,1456497.04,1457036.33,1459279.27,1458618.5,1455987.48
69,ATCHAYA EXPORTS,"3A, Mariamman Koil St, Panruti, Thorapadi, Tamil Nadu 607106, India",Tamil Nadu,607106,6265,0,0,0,0,0,0,2102,0,Panruti,Cuddalore,11.76015140909091,79.55037046363637,2,0.0,0.0,0.0,0.0,0.0
70,ATCHERRA IMPEX,"14B,PUTHUTHOTTAM, SBI Colony, NARAYANASWAMY NAGAR, Gandhinagar, Velampalayam, Tiruppur, Tamil Nadu 641603, India",Tamil Nadu,641603,14046,16099,29339,17101,17537,8741,1545,25134,28201,Tiruppur,Coimbatore,11.135501066666668,77.34238386666667,1,28195.16,28196.48,28200.13,28203.15,28199.73
71,ATHAVAN CLOTHING COMPANY,"10/588E, Acc house mullai nagar Extn, Ganapathipalayam Rd, Chinnakarai, Tiruppur, Tamil Nadu 641605, India",Tamil Nadu,641605,24088,40084,52535,26320,0,18418,808,0,0,Kangayam,Erode,11.1207516,77.335338875,1,0.0,0.0,0.0,0.0,0.0
72,ATLANTIC CARE CHEMICALS,"Industrial development plot, Punnapra North, Alappuzha, Kerala 688003, India",Kerala,688003,1197608,1122836,1410666,919697,1150553,829772,1163489,1556112,1200961,Ambalapuzha,Alappuzha,9.468575348387096,76.33827430967742,0,1197056.03,1199281.43,1197792.36,1197603.82,1195496.16
73,ATLAS EXPORT ENTERPRISES,"V2P6+G5W, Thalapatti, Tamil Nadu 639003, India",Tamil Nadu,639003,55448,952,79684,11085,16562,29009,29135,51774,20233,Karur,Karur,10.9371391,78.0401658,1,20208.14,20207.92,20235.27,20234.4,20227.89
74,ATLAS MACHINE TOOLS,"Atlas House Kunnathurmedu, Menna Nagar Colony, Kalmandapam, Palakkad, Kerala 678013, India",Kerala,678013,25,4319,148,1021,0,0,0,0,247,Palakkad,Palakkad,10.766884786666663,76.66394232666667,1,251.79,250.98,251.64,253.89,251.59
75,AVIRAM KNITTERS,"2nd Street, No. 34-A, PN Rd, Kamaraj Nagar, Tiruppur, Tamil Nadu 641602, India",Tamil Nadu,641602,73982,30164,36356,23745,1474,116144,169945,287528,67214,Tiruppur,Coimbatore,11.121108205263155,77.34359659473684,1,67010.97,67283.4,67056.92,67293.76,67029.43
76,AVLA NETTOS EXPORTS,"WGJW+H82, Neendakara - Chinnakkada Rd, Sakthikulangara North, Kollam, Kerala 691581, India",Kerala,691581,1042821,1546705,1663803,2583904,3417441,1817234,2678875,3180858,2720672,Kollam,Kollam,8.928226436363635,76.54678488181818,0,2716810.23,2711867.36,2712309.65,2708638.0,2719584.91
77,AWA EXPORTS,"T2,Bharat city arcade, Vathukara St, Annamalai Nagar, Woraiyur, Tiruchirappalli, Tamil Nadu 620003, India",Tamil Nadu,620003,70490,27300,0,0,0,0,0,0,0,Tiruchirappalli,Tiruchirappalli,10.799158811111113,78.68337603333333,1,0.0,0.0,0.0,0.0,0.0
78,AYKARA PHARMACEUTICALS,"2M96+9MP, Moonnumukku - Uppoodu Road, Mathilakom, Kizhakkekallada, Kerala 691502, India",Kerala,691502,320,980,0,1210,376,0,0,0,0,Kollam,Kollam,9.008392784545457,76.65603456545455,0,0.0,0.0,0.0,0.0,0.0
79,AYUR PANCHAKARMA EQUIPMENTS,"Velichappat, 3/217 B, Poickattussery, Chengamanad PO Ernakulam District Nedumbassery kurumaseri Road 589P+397, Aluva - Mala Rd, Kerala 683578, Aluva, Kerala 683585, India",Kerala,683578,1870,755,0,550,2460,500,5454,0,0,Paravur,Ernakulam,10.155197839473685,76.30713587631578,0,0.0,0.0,0.0,0.0,0.0
80,B.N.T. CONNECTIONS,"126, Nelson Manickam Rd, Collectorate Colony, Aminjikarai, Chennai, Tamil Nadu 600094, India",Tamil Nadu,600094,15808,82596,73715,7944,0,587,0,0,5318,Chennai,Chennai,13.063181717391304,80.2239403826087,2,5337.91,5338.01,5344.82,5335.38,5339.59
81,B.S.RUBBERS,"IX/45-N INDUSTRIAL DEVELOPMENT PLOT, Poovanthuruthu, Kerala 686012, India",Kerala,686012,153709,259888,289433,554904,652883,567040,770860,688116,400656,Kottayam,Kottayam,9.54856711111111,76.52230786666667,0,400013.09,398651.57,400238.43,399870.63,399571.24
82,BABIN TECHNOLOGIES,"5V2R+RX3, Kakkanchery, Chelambra, Kerala 673636, India",Kerala,673636,1912,1593,7417,9321,0,0,10508,4131,680,Tirurangadi,Malappuram,11.118472538297873,75.8919613468085,3,683.66,684.03,682.33,685.47,681.37
83,BABU COIR WORKS,"Pathirappally Omanappuzha Road, Pattukalam, Alappuzha, Kerala 688522, India",Kerala,688522,952546,788299,930585,1134556,956257,1165199,1539315,1006202,1314481,Ambalapuzha,Alappuzha,9.572168202777778,76.32190507222222,0,1310836.0,1308014.27,1310513.97,1307879.28,1309341.37
84,BABU ENGINEERING,"3B, Kamban Street, 1st St N, Ramakrishnapuram, Saravanampatti, Siranandha Puram, Coimbatore, Tamil Nadu 641035, India",Tamil Nadu,641035,3750,0,0,0,0,0,0,0,0,Coimbatore North,Coimbatore,11.075230651851852,77.00013037037037,1,0.0,0.0,0.0,0.0,0.0
85,BABY MARINE EASTERN EXPORTS,"Plot No. C-77-A2, C-77B1, Sipcot Industrial Comlex, Madathur, Udumalapetai, Madathur, Thoothukudi, Tamil Nadu 628008, India",Tamil Nadu,628008,1575097,883159,683471,1139398,431416,205675,115997,43800,50000,Thoothukkudi,Tuticorin,8.901466286842105,78.11534920263158,0,50025.69,50048.01,49999.81,50004.51,50025.82
86,BABY MARINE INTERNATIONAL,"Thoppumpady, W7M8+59J, Thoppumpady, Kochi, Kerala 682005, India",Kerala,682005,1327811,1285102,1793083,1438568,867302,579247,436163,384500,1422596,Kochi,Ernakulam,9.940253061111113,76.25960161388889,0,1420227.45,1421779.02,1422684.25,1421068.3,1421479.33
87,BAFNA ENTERPRISES,"V798+RQR, puthenthode, Kannamaly, Kochi, Kerala 682008, India",Kerala,682008,2015672,1150357,1137553,624548,1190291,1361656,1774016,1375171,1138612,Kochi,Ernakulam,9.869597658064515,76.26596289354838,0,1144299.52,1144878.09,1144557.54,1145250.44,1144067.62
88,BAGAVATHI APPARELS,"5, Angeripalayam Main Road, Jeeva Colony, Gandhi Nagar (PO), SBI Colony, Gandhinagar, Velampalayam, Titupur, Tiruppur, Tamil Nadu 641603, India",Tamil Nadu,641603,6835,18998,0,0,0,0,0,0,0,Tiruppur,Coimbatore,11.135501066666668,77.34238386666667,1,0.0,0.0,0.0,0.0,0.0
89,BAKKHUS MERLOT INDUSTRIES,"D-47&48, Municipal Shopping Complex, AM Rd, Perumbavoor, Kerala 683542, India",Kerala,683542,20300,0,0,0,0,0,0,0,0,Kunnathunad,Ernakulam,10.114937405454544,76.47808056363637,0,0.0,0.0,0.0,0.0,0.0
90,BALAKRISHNA ENGINEERING,"1/93, Mylampatti Post, near, Chinnampalayam, Coimbatore, Mylampatti, Tamil Nadu 641062, India",Tamil Nadu,641062,34895,9811,0,0,0,8055,2075,0,0,Coimbatore South,Coimbatore,11.0632278125,77.0744629125,1,0.0,0.0,0.0,0.0,0.0
91,BALU ENGINEERING INDUSTRIES,"2XHP+FRH, Avarampalayam, Illango Nagar, Coimbatore, Tamil Nadu 641006, India",Tamil Nadu,641006,5828,0,0,0,0,0,9800,0,0,Coimbatore North,Coimbatore,11.059443936363635,76.99888995,1,0.0,0.0,0.0,0.0,0.0
92,BANAN GLOBAL TRADING,"Room no.477-C, Gandhinagar West Kechery, Thalakottukara ,India.pin-680501, Kechery, Thalakottukara, Kerala 680501, India",Kerala,680501,157421,11842,51301,8276,151968,92358,189167,54176,82690,Talappilly,Thrissur,10.63004167027027,76.12065817297298,3,82618.57,82564.88,82688.01,82723.0,82717.96
93,BASCO FOODS (INDIA )PVT. LTD ,"29Q2+WHJ, Edappally - Pukkattupady Rd, Kollamkudimugal, Kangarappady, Kochi, Kerala 682021, India",Kerala,682021,175252,242810,306980,92699,123910,114447,89410,244400,41550,Ernakulam,Ernakulam,10.029233765060242,76.3353045433735,0,41488.64,41515.79,41561.91,41482.92,41535.83
94,BASH-P INTERNATIONAL,"2947+MW7, Infopark Campus, Infopark, Kakkanad, Kerala 682030, India",Kerala,682030,56259,55934,0,0,16337,0,0,16064,30329,Ernakulam,Ernakulam,10.015078886419754,76.34669742469136,0,30335.49,30279.33,30325.22,30319.48,30329.2
95,BEEK COTTON CLOTHS,"Amarjothi Gardens, Railway Feeder Road, 485V+46W, Railway Feeder Road, Kannipiran Colony, Valipalayam, Tiruppur, Tamil Nadu 641601, India",Tamil Nadu,641601,1581,199,0,0,0,1510,1118,0,0,Avinashi,Coimbatore,11.096039183333334,77.27852751666666,1,0.0,0.0,0.0,0.0,0.0
96,BELL FOODS,"Pallichal Rd, Valummel, Kochi, Kerala 682005, India",Kerala,682005,1051564,2527796,2419963,2496982,793479,614300,1164049,1270138,1186474,Kochi,Ernakulam,9.940253061111113,76.25960161388889,0,1187397.18,1189217.65,1190846.16,1188223.6,1187424.59
97,BENSO GARMENTS,"pariyur amman nagar, Nochipalayam, Tiruppur, Tamil Nadu 641605, India",Tamil Nadu,641605,1203,9745,1856,3818,8213,2717,1164,27738,7385,Kangayam,Erode,11.1207516,77.335338875,1,7374.64,7366.68,7383.13,7377.01,7386.85
98,BENZER TRADING INDIA P.LTD.,"Thiruvegappura, Pattambi, Thiruvegappura, Kerala 679304, India",Kerala,679304,52498,0,0,0,0,0,0,0,0,Ottappalam,Palakkad,10.874712928571428,76.12257982857143,3,0.0,0.0,0.0,0.0,0.0
99,BESCOAT,"Ambalathinkara, Kerala 671531, India",Kerala,671531,28000,62661,24000,54095,36650,60280,31723,65418,45275,Hosdurg,Kasargod,12.355591562679429,75.14433762918661,3,45279.08,45260.71,45273.51,45278.59,45245.49
100,BETHANYA CASHEW COMPANY,"Mavady Post, Enathu Puthoor Rd, Kerala 691507, India",Kerala,691507,238644,222831,171636,138504,213504,138380,161054,210876,238921,Kottarakkara,Kollam,9.043139252830189,76.7161006773585,0,239252.61,239130.47,239961.93,239690.9,239607.26
101,BETHEN PLANTATIONS,"Glenmary Estate, Peerumade (PO), HXGG+78G, Peermade, Idukki, Kuttikkanam, Kerala 685531, India",Kerala,685531,11880,0,0,0,0,0,0,0,0,Peerumade,Idukki,9.576299994642858,76.99785246785714,0,0.0,0.0,0.0,0.0,0.0
102,BETHSAIDA CASHEW COMPANY,"Kollam Kerala, Kerala 691507, India",Kerala,691507,190512,127008,188760,172334,216636,142140,209092,173644,189970,Kottarakkara,Kollam,9.043139252830189,76.7161006773585,0,189819.36,189670.53,189532.07,189718.12,189620.77
103,BHAGYAM EXPORTS,"55, GNG St, Varadaraja Puram, Ambattur, Chennai, Tamil Nadu 600053, India",Tamil Nadu,600053,532,0,0,0,0,0,0,0,0,Ambattur,Tiruvallur,13.115547275,80.15386521875,2,0.0,0.0,0.0,0.0,0.0
104,BHARATH PAPER CONVERSIONS,"No. 40, 5th Cross, Bharathi Park Rd, Periyar Nagar, Anna Nagar, Coimbatore, Tamil Nadu 641043, India",Tamil Nadu,641043,208565,261322,101325,197455,31751,78785,120963,26403,37040,Coimbatore North,Coimbatore,11.02590545,76.94764801666666,1,37052.3,37044.55,37039.78,37064.55,37078.88
105,BHAVANI FOOD INDUSTRIES,"9HR7+5RM, Thiruvalla, Kerala 689101, India",Kerala,689101,25016,6526,6630,0,0,0,0,0,0,Tiruvalla,Pathanamthitta,9.39262636233184,76.5697836941704,0,0.0,0.0,0.0,0.0,0.0
106,BIJU MODERN RICE MILL,"Oottara, Kollengode, JPH2+7X8, Panangattiri, Kerala 678504, India",Kerala,678504,21000,0,0,0,0,0,0,0,0,Chittur,Palakkad,10.639918471428572,76.6950375,1,0.0,0.0,0.0,0.0,0.0
107,BIPIN EXPORTS,"20, Kongu Main Rd, SNVS Layout, Muthu Nagar, Renganatha Puram, Tiruppur, Tamil Nadu 641607, India",Tamil Nadu,641607,440,0,0,0,0,0,10400,11237,4704,Tirupur,Coimbatore,11.1214821,77.36035476666666,1,4703.02,4700.93,4705.26,4702.15,4705.62
108,BIRIN GARMENTS,"57PJ+26C, SH19, Kaikattipudhur, Avinashi, Tamil Nadu 641654, India",Tamil Nadu,641654,305,0,0,0,0,0,0,0,0,Avinashi,Coimbatore,11.17420899375,77.233283075,1,0.0,0.0,0.0,0.0,0.0
109,BISMI CASHEWS,"Sengeni Ammal St, Panruti, Tamil Nadu 607106, India",Tamil Nadu,607106,1050084,473652,735768,228504,624882,908621,818610,685322,779860,Panruti,Cuddalore,11.76015140909091,79.55037046363637,2,782097.52,781579.45,780618.65,781638.75,781466.67
110,BISMI TRADING COMPANY,"EEC Market, Market P.O, Vazhappily, Muvattupuzha, Kerala 686673, India",Kerala,686673,1117994,747151,341385,174100,142352,269231,402661,1435275,2254230,Muvattupuzha,Ernakulam,9.98582857409836,76.58100003016393,0,2278582.45,2275280.56,2279484.36,2276054.87,2270738.21
111,BISMILLAH AGRI COMMODITIES,"HMD BUILDING, 18/1640, Karicode, Koikkal, Kollam, Kerala 691004, India",Kerala,691004,42000,0,0,0,0,0,0,0,0,Kollam,Kollam,8.904030673684211,76.62197661052632,0,0.0,0.0,0.0,0.0,0.0
112,BLASTLINE  INDIA,"48/2510D4, 2nd Floor, Blastline Corporate Chamber,Pottakuzhi Elamakkakara (PO, Perandoor Rd, Mamangalam, Kaloor, Ernakulam, Kochi, Kerala 682026, India",Kerala,682026,41117,72252,102370,91046,85858,56970,97175,112473,148588,Ernakulam,Ernakulam,10.01621266875,76.288820209375,0,149165.57,149090.87,148916.22,149134.63,148976.74
113,BLOSSOM APPARELS,"1058, Munusamy Salai, KK Nagar West, K. K. Nagar, Chennai, Tamil Nadu 600078, India",Tamil Nadu,600078,3443,6950,1440,0,2870,0,0,0,0,Chennai City Corporation,Chennai,13.040193223809524,80.19962110476192,2,0.0,0.0,0.0,0.0,0.0
114,BLUE BREEZE ENTERPRISE,"SIDCO, Tamil Nadu 641606, India",Tamil Nadu,641606,60344,115531,112526,190146,469786,198646,344713,256061,399210,Tiruppur,Coimbatore,11.108007883333332,77.3994223,1,399253.31,398601.61,399296.2,399038.66,399090.93
115,BLUEMOUNTAIN EXPORTERS,"14/486, East, Pandikudy, Chullickal, Kochi, Kerala 682001, India",Kerala,682001,25219,22563,9274,14074,25750,20622,22977,0,0,Kochi,Ernakulam,9.961975513432836,76.24336774328359,0,0.0,0.0,0.0,0.0,0.0
116,BOSE EXPORTS,"48FH+P3M, Asher Nagar 60 Feet Rd, Valayankadu South, Tiruppur, Tamil Nadu 641603, India",Tamil Nadu,641603,6157,20582,43819,15432,68644,45301,100581,338515,330521,Tiruppur,Coimbatore,11.135501066666668,77.34238386666667,1,330531.03,330192.33,330268.51,330497.75,330457.29
117,BRIGHT ENGINEERING COMPANY,"lakshmi, Ganesh Nagar 3rd St, Lakshmi Nagar, Koundampalayam, Coimbatore, Tamil Nadu 641030, India",Tamil Nadu,641030,36980,16632,17058,2355,11648,6980,21141,38042,73586,Coimbatore North,Coimbatore,11.038309671428571,76.94737058571428,1,73674.61,73707.95,73695.06,73698.71,73756.16
118,BRITE GARMENTS,"47/1, Periyar St, Erode, Tamil Nadu 638003, India",Tamil Nadu,638003,747,0,0,0,0,0,0,0,0,Erode,Erode,11.34824984,77.72973542666666,1,0.0,0.0,0.0,0.0,0.0
119,BROS INDIA GROUP,"J9C6+WCC, Kayippuram, Muhamma, Kerala 688525, India",Kerala,688525,269601,281284,162195,146602,113391,241360,348723,365227,325570,Cherthala,Alappuzha,9.619357622727271,76.35883995454545,0,327983.55,326102.75,326748.3,326282.96,326482.24
120,BUSTHAN AL WATHANIYA,"P9V4+QVH, Pallipuram, Kerala 688541, India",Kerala,688541,1034734,1111428,1105461,818131,488107,507506,487014,527820,201081,Cherthala,Alappuzha,9.742432095238096,76.36193387142858,0,200143.84,200704.71,200526.41,200034.02,200322.19
121,C.P. EXPORTS,"56, S Car St, Teppam South Bazar, Anna Nagar, Virudhunagar, Tamil Nadu 626001, India",Tamil Nadu,626001,58400,0,19200,0,389950,0,0,0,0,Virudhunagar,Virudhunagar,9.590604,77.95970871860465,0,0.0,0.0,0.0,0.0,0.0
122,C.R.GARMENTS,"330/1, Sri Gokula Krishna Nagar Tkt Mills, Palladam Road, Tiruppur - Palladam Rd, AB Nagar, Tiruppur, Tamil Nadu 641605, India",Tamil Nadu,641605,27112,19827,31054,687,816,293,0,0,0,Kangayam,Erode,11.1207516,77.335338875,1,0.0,0.0,0.0,0.0,0.0
123,C.R.I.RUBBERS,"XI /799, VIJAYAPURAM, Vadavathoor, Kottayam, Kerala 686010, India",Kerala,686010,146350,66155,156710,145122,146010,124182,58764,0,0,Kottayam,Kottayam,9.590680228,76.56449500800001,0,0.0,0.0,0.0,0.0,0.0
124,C.S. GARMENTS,"42, Karumarampalayam Rd, Karumarpalayam, Mannarai, Tiruppur, Tamil Nadu 641607, India",Tamil Nadu,641607,2253,18888,58215,1146,0,0,0,0,0,Tirupur,Coimbatore,11.1214821,77.36035476666666,1,0.0,0.0,0.0,0.0,0.0
125,C.V.S.EXPORTS,"28/4, Millers Rd, Kilpauk, Chennai, Tamil Nadu 600010, India",Tamil Nadu,600010,5096,0,0,0,0,0,0,0,0,Perambur Purasawalkam,Chennai,13.08101776716418,80.2377158283582,2,0.0,0.0,0.0,0.0,0.0
126,CALMET ENGINEERING,"3/176, SS no - 419/5D, Maniyavi Thottam West Arasur, SulurTaluk, Amman Nagar, Coimbatore, Tamil Nadu 641407, India",Tamil Nadu,641407,18564,69777,86397,86345,228380,72192,0,0,26888,Palladam,Coimbatore,11.076832133333331,77.14018266666666,1,26859.79,26876.44,26870.11,26886.52,26904.0
127,CANDOUR TEXPORT,"103, Street, Kozhipannai, Andipalayam, Tiruppur, Tamil Nadu 641687, India",Tamil Nadu,641687,9755,48705,91170,74962,242032,123160,143775,0,36466,Tiruppur,Coimbatore,11.0980518625,77.309765225,1,36440.31,36447.26,36422.78,36416.04,36444.43
128,CANNANORE HANDLOOM EXPORTS,"V9FW+8MW, Elayavoor, Kerala 670005, India",Kerala,670005,518742,460864,347889,361760,312139,234667,385932,364588,347977,Kannur,Kannur,11.88568325,75.39104645,3,348029.95,347511.78,347836.85,347957.41,348027.85
129,CANNANORE HOME FURNISHINGS,"Manuelsons, Complex, GH Rd, Mananchira, Kozhikode, Kerala 673001, India",Kerala,673001,1007,589,0,0,0,0,0,0,0,Kozhikode,Kozhikode,11.250885012068968,75.78104223908046,3,0.0,0.0,0.0,0.0,0.0
130,CANON BALL FASHIONS,"5C6J+J64, Kavandampalayam, Tamil Nadu 638752, India",Tamil Nadu,638752,572,0,0,0,0,0,0,0,0,Erode,Erode,11.1508836,77.4367188,1,0.0,0.0,0.0,0.0,0.0
131,CARONA KNITWEAR,"1,Bridgeway Colony, Extention North, Bridge Way Colony Extension, Tiruppur, Tamil Nadu 641607, India",Tamil Nadu,641607,4638,0,3883,0,2852,0,0,0,0,Tirupur,Coimbatore,11.1214821,77.36035476666666,1,0.0,0.0,0.0,0.0,0.0
132,CARRIS PIPES,"P.B. No.2, Koovappady P.O, Akanad, Kerala 683544, India",Kerala,683544,5188,3600,2400,2500,15041,2280,0,880,3800,Kunnathunad,Ernakulam,10.166672573758866,76.50774667872341,0,3796.29,3794.97,3797.28,3797.24,3798.69
133,CAT COIR,"Coir park 1 Thiruvizha North Road, Post, Mayithara, Cherthala South, Kerala 688539, India",Kerala,688539,143863,0,0,0,0,0,0,0,0,Cherthala,Alappuzha,9.66428288888889,76.34121377777778,0,0.0,0.0,0.0,0.0,0.0
134,CATHOLIC ART CENTRE,"Broadway, Church St, Marine Drive, Ernakulam, Kochi, Kerala 682031, India",Kerala,682031,400,0,0,0,0,0,0,0,0,Ernakulam,Ernakulam,9.99692354,76.27468644,0,0.0,0.0,0.0,0.0,0.0
135,CBC FASHIONS,"No.11, M. R. Nagar, Dharapuram Main Rd, MR Nagar, K N P Colony, Tiruppur, Tamil Nadu 641604, India",Tamil Nadu,641604,174085,172183,126384,69477,50926,42170,3300,0,0,Tiruppur,Coimbatore,11.096187535483873,77.34985892258065,1,0.0,0.0,0.0,0.0,0.0
136,CEAKAY INDUSTRIES,"Ponpuzha, Ithithanam Post, Changanacherry Near Saintgits college, Pathamuttom, Kottayam, Ithithanam, Kerala 686535, India",Kerala,686535,1977574,1545564,1535023,2036325,2587584,2278346,3361076,1726492,2138720,Changanassery,Kottayam,9.479609457894735,76.52609346315789,0,2130973.95,2131396.12,2126597.79,2126599.05,2127904.4
137,CEE BEE EXPORTS,"582M+VXG, Vengamedu, Mangulam, Tiruppur, Tamil Nadu 641603, India",Tamil Nadu,641603,912,9506,9067,0,11227,6887,1336,0,0,Tiruppur,Coimbatore,11.135501066666668,77.34238386666667,1,0.0,0.0,0.0,0.0,0.0
138,CHAITHANYA HERBALS,"Naruvamoodu, Pallichal, Kerala 695507, India",Kerala,695507,125,0,0,8600,6178,8877,8734,0,8815,Neyyattinkara,Thiruvananthapuram,8.458312268965518,77.0568589275862,0,8809.65,8798.09,8822.01,8817.88,8817.86
139,CHANDRA CASHEW FACTORY,"2PCC+JGV, Thevalapuram, Neduvathoor, Kerala 691507, India",Kerala,691507,332520,360768,314892,90876,77326,0,60000,30000,90000,Kottarakkara,Kollam,9.043139252830189,76.7161006773585,0,90434.08,90357.69,90344.47,90440.04,90344.59
140,CHARANKATTU COIR MFG.CO.P.LTD.,"AS Road, J84M+GF5, Kanjikuzhy, Shertallay, Kerala 688524, India",Kerala,688524,891951,955612,1131406,1103900,1177853,945297,550028,520763,656219,Cherthala,Alappuzha,9.6891011625,76.33285069583334,0,662946.96,661740.91,661043.58,661614.38,660634.27
141,CHARLY FISHERIES,"WGPV+RXG, Neendakara, Kollam, Kerala 691582, India",Kerala,691582,1372644,1918042,2273976,3775798,3277071,1379848,1802697,1623207,2202798,Karunagapally,Kollam,8.9475339,76.53934165,0,2203703.67,2215174.46,2203313.62,2218043.49,2208365.33
142,CHEETAH GARMENS,"396M+769, Tiruppur, Tamil Nadu 641605, India",Tamil Nadu,641605,13191,1200,0,7179,16313,0,0,0,0,Kangayam,Erode,11.1207516,77.335338875,1,0.0,0.0,0.0,0.0,0.0
143,CHEMMEENS (REGD),"Chemmeens Junction,Karuvekipady, Kochi-682005, Karuvelipady, Kazhuthumuttu, Thoppumpady, Kochi, Kerala 682005, India",Kerala,682005,219608,185660,118000,0,0,0,0,0,0,Kochi,Ernakulam,9.940253061111113,76.25960161388889,0,0.0,0.0,0.0,0.0,0.0
144,CHERISH KNITS,"81, 2nd Street, New Ramakrishna Puram Mordan Bakery Street, Muthu Nagar, Renganatha Puram, Tiruppur, Tamil Nadu 641607, India",Tamil Nadu,641607,26391,19593,12226,9696,33325,11345,5062,31147,84347,Tirupur,Coimbatore,11.1214821,77.36035476666666,1,84359.89,84250.5,84256.62,84306.82,84269.72
145,CHERUKATTU INDUSTRIES,"V8C7+3QX Cherukattu Industries, Aroor gram panchayat, Kochi, Kerala 688534, India",Kerala,688534,4773530,3710012,4801189,3224544,1616900,1333679,1467950,758625,556020,Cherthla,Alappuzha,9.871729377142858,76.30438504,0,555930.86,559382.71,558765.29,556854.74,557756.09
146,CHETHANA PHARMACEUTICALS,"X6CJ+F69, Shanti Nagar, Perintalmanna, Kerala 679322, India",Kerala,679322,4455,10667,5095,0,0,0,0,0,0,Perinthalmanna,Malappuram,10.977929251428572,76.22854857333334,3,0.0,0.0,0.0,0.0,0.0
147,CHIPPY EXPORTS,"Pitchampalayam Pudur, Tiruppur, Tamil Nadu 641603, India",Tamil Nadu,641603,40250,64024,172839,35168,33858,29799,18434,0,5230,Tiruppur,Coimbatore,11.135501066666668,77.34238386666667,1,5250.37,5246.42,5243.3,5240.0,5250.22
148,CHRISTY APPARELS,"SR Nagar, Periyandipalayam, Tiruppur, Tamil Nadu 641687, India",Tamil Nadu,641687,118856,147952,539452,1029221,313175,68811,101571,63120,3200,Tiruppur,Coimbatore,11.0980518625,77.309765225,1,3198.15,3200.23,3199.27,3194.39,3199.34
149,CII GUARDIAN INTERNATIONAL LTD.,"16B, CSEZ, Kakkanad, Kerala 682037, India",Kerala,682037,171,0,0,0,0,0,0,0,0,Ernakulam,Ernakulam,9.997384706451612,76.34072476129032,0,0.0,0.0,0.0,0.0,0.0
150,CLAIRON FILTERS,"Plot. No.41, 37, CSEZ, Kakkanad, Kochi, Kakkanad, Kerala 682037, India",Kerala,682037,65762,56866,108746,197692,205880,154556,212749,128149,90882,Ernakulam,Ernakulam,9.997384706451612,76.34072476129032,0,90929.1,90873.06,90895.78,90923.94,90868.16
151,CLASSIC COIR FACTORY,"IV/833, MSP, Valavanad, Pollethai, Alappuzha, Kerala 688522, India",Kerala,688522,1141146,1153699,2037420,1963471,2912157,1792341,4643823,1473757,1759857,Ambalapuzha,Alappuzha,9.572168202777778,76.32190507222222,0,1762259.91,1761446.32,1756446.72,1759230.34,1757342.1
152,CLASSIC COOLING TOWERS,"No. 566, Swaminathapuram Village, Vadavalli, Panchayat, Taluk, Annur, Tamil Nadu 641697, India",Tamil Nadu,641697,6500,0,0,0,0,0,0,0,0,Mettupalayam,Coimbatore,11.2594773,77.0357906,1,0.0,0.0,0.0,0.0,0.0
153,COCHIN CADALAS P.LTD.,"Kochi, Kerala, India",Kerala,682024,11000,0,0,0,0,0,0,0,0,Ernakulam,Ernakulam,10.01888763298969,76.30253450412371,0,0.0,0.0,0.0,0.0,0.0
154,COCHIN CONDIMENTS P.LTD.,"Kochi, Kerala, India",Kerala,682002,10892,0,0,0,0,0,0,0,0,Kochi,Ernakulam,9.957255232894736,76.25402236842105,0,0.0,0.0,0.0,0.0,0.0
155,COCHIN COSMOS FOODS LTD.,"Kochi, Kerala, India",Kerala,688524,131200,178220,64000,63000,122600,50000,103000,56125,75000,Cherthala,Alappuzha,9.6891011625,76.33285069583334,0,74778.11,74923.48,74761.02,74862.66,74849.19
156,COCHIN DIES AND MOULDS,"Kochi, Kerala, India",Kerala,682002,11855,0,0,0,0,0,0,0,0,Kochi,Ernakulam,9.957255232894736,76.25402236842105,0,0.0,0.0,0.0,0.0,0.0
157,COCHIN EXPORTS,"Federal Park, Vennala, Ernakulam, Kochi, Kerala 682028, India",Kerala,682028,11561,0,0,0,165,0,4501,5545,9218,Ernakulam,Ernakulam,9.99670085,76.32102778,0,9215.26,9209.13,9216.6,9211.61,9210.12
158,COCHIN EXPORTS  ,"Federal Park, Vennala, Ernakulam, Kochi, Kerala 682028, India",Kerala,682028,2469,0,0,0,0,0,0,0,0,Ernakulam,Ernakulam,9.99670085,76.32102778,0,0.0,0.0,0.0,0.0,0.0
159,COCHIN FROZEN FOOD EXPORTS P. LTD.,"Kochi, Kerala, India",Kerala,688534,1459122,1655089,2573128,2995866,1846186,1520098,825194,322699,49492,Cherthla,Alappuzha,9.871729377142858,76.30438504,0,49480.33,49475.55,49478.49,49492.45,49492.29
160,COCHIN MINERALS AND RUTILE LTD.,"Poorna Nagar Park,, 4952+GWW, Periyar Nagar, Aluva, Kerala 683101, India",Kerala,683101,42222680,41453954,43104694,37195286,41561818,42376693,36377472,42237733,32178282,Aluva,Ernakulam,10.095680780412373,76.36233782061856,0,25428585.77,25651170.73,24219890.87,26723944.88,25624388.3
161,COCHIN RECLAIM & RUBBER,"Kochi, Kerala, India",Kerala,682002,60000,57620,0,0,0,0,0,0,0,Kochi,Ernakulam,9.957255232894736,76.25402236842105,0,0.0,0.0,0.0,0.0,0.0
162,COCHIN RUBBER INDUSTRIES,"Kochi, Kerala, India",Kerala,682002,41466,38699,0,0,55744,0,0,125560,22502,Kochi,Ernakulam,9.957255232894736,76.25402236842105,0,22440.03,22449.39,22471.16,22472.19,22463.78
163,COCHIN SURFACTANTS P.LTD.,"PLOT no 63, Edayar, Kerala 683502, India",Kerala,683502,271800,265772,924712,818520,0,0,0,0,0,Paravur,Ernakulam,10.087692555555556,76.30506273333334,0,0.0,0.0,0.0,0.0,0.0
164,COCHIN TRADERS COCHIN,"20/46B, Near I.O.C Petrol Pump, Palluruthy Veli, Aroor - Thoppumpady Rd, Palluruthy, Kochi, Kerala 682006, India",Kerala,682006,64699,8000,8000,9000,45690,0,9072,0,0,Kochi,Ernakulam,9.917652551851852,76.27326455925926,0,0.0,0.0,0.0,0.0,0.0
165,COCO  FIBRE TEX,"G83H+F9Q, Aarattuvazhi, Kanjiramchira, Aryad South, Alappuzha, Kerala 688007, India",Kerala,688007,2935736,3410310,3501333,3392388,4147347,2929253,5330246,3877303,5084111,Ambalapuzh A,Alappuzha,9.510326070833331,76.3268778625,0,5195326.59,5300655.06,5268090.73,5194727.58,5243197.59
166,COIMBATORE POTTERIES & REFRACTORIES,"Coimbatore, Tamil Nadu, India",Tamil Nadu,682024,77520,158245,99390,138945,144470,285928,262443,101606,137480,Ernakulam,Ernakulam,10.01888763298969,76.30253450412371,0,137260.26,137338.67,137221.66,137396.5,137071.6
167,COIR FLEX,"Building No.X11, Pattanakkad, Cherthala, Pattanakkad, Kerala 688531, India",Kerala,688531,734777,748190,851413,730777,749965,770176,1124961,842077,787539,Cherthala,Alappuzha,9.725622914130437,76.31563821847826,0,788793.28,787771.03,787829.26,790390.18,788407.07
168,COIR FLOOR FURNISHING CO.,"Kalyan Villa, Vellakinar Rd, Vellakkinar, Alappuzha, Kerala 688001, India",Kerala,688001,9908,6800,12800,7489,6107,0,9100,3506,6158,Ambalapuzha,Alappuzha,9.49638391904762,76.33209264761905,0,6184.05,6176.25,6197.3,6190.84,6201.36
169,COIR MATES INDIA,"TP-12/498K, Varanad PO, Cherthala, Pin: 688539, Alappuzha, Cherthala, Kerala 688524, India",Kerala,688539,128449,132356,137397,203908,213406,187355,175846,191626,116995,Cherthala,Alappuzha,9.66428288888889,76.34121377777778,0,116249.75,116378.93,116165.25,116319.45,116319.9
170,COMET EXPORTS,"J88R+699, Kanjikuzhy, Kanjikkuzhi, Kerala 688525, India",Kerala,688525,668449,390157,305216,362471,268197,228331,320840,229223,217167,Cherthala,Alappuzha,9.619357622727271,76.35883995454545,0,216657.37,216115.1,215888.46,216220.07,216178.12
171,CONSOLIDATED WOOD INDUSTRIES,"Chingavanam, Kerala 686007, India",Kerala,686007,68000,117245,116525,105785,184253,506236,859227,85850,209002,Kottayam,Kottayam,9.531553366666667,76.5150448,0,209095.36,209811.66,209598.08,209423.92,209244.27
172,COONOOR TEA ESTATES CO. LTD.,"Coonoor, Tamil Nadu, India",Tamil Nadu,682002,514266,507220,880344,126280,0,0,0,0,0,Kochi,Ernakulam,9.957255232894736,76.25402236842105,0,0.0,0.0,0.0,0.0,0.0
173,COSMIK INDUSTRY,"514/7, Pothiyampalayam, Road, Arasur, Tamil Nadu 641407, India",Tamil Nadu,641407,38809,45680,21494,48932,52553,37697,13682,23705,12430,Palladam,Coimbatore,11.076832133333331,77.14018266666666,1,12428.17,12435.29,12433.65,12428.13,12422.69
174,COTTAGE ARTS EMPORIUM,"No. 29, TT Krishnamachari Rd, CIT Colony, Mylapore, Chennai, Tamil Nadu 600018, India",Tamil Nadu,600018,3140,2390,1275,1059,5918,1201,0,3074,469,Chennai,Chennai,13.03717306923077,80.25536904615385,2,471.41,470.14,469.72,470.81,471.87
175,COTTON BUDS INC.,"2a, PN Rd, Palanisamy Nagar, Vengamedu, Poyampalayam, Tiruppur, Tamil Nadu 641602, India",Tamil Nadu,641602,37641,20785,14479,0,0,0,3488,96931,118864,Tiruppur,Coimbatore,11.121108205263155,77.34359659473684,1,118119.52,118121.68,118115.9,118093.52,117883.9
176,COVAI EXIM,"B No.10-1, Krishna Nagar, Maniyarkaranpalayam Road, Periyar Nagar, Anna Nagar, Coimbatore, Tamil Nadu 641006, India",Tamil Nadu,641006,587,0,0,0,0,0,0,22360,0,Coimbatore North,Coimbatore,11.059443936363635,76.99888995,1,0.0,0.0,0.0,0.0,0.0
177,COVEMA FILAMENTS LTD.,"14-B, CSEZ, Kakkanad, Kerala 682037, India",Kerala,682037,26463,16475,13328,18765,10894,30676,30586,0,0,Ernakulam,Ernakulam,9.9974668375,76.341009940625,0,0.0,0.0,0.0,0.0,0.0
178,CPS TEXTILES P. LTD.,"26A, Kangayam Rd, opp. JMHS School, Kaliyappa Nagar, Cheran Nagar, Lakshmi Garden, Tiruppur, Tamil Nadu 641604, India",Tamil Nadu,641604,8789,0,17906,23297,0,0,58126,62872,12732,Tiruppur,Coimbatore,11.096187535483873,77.34985892258065,1,12804.98,12785.72,12795.82,12794.23,12808.8
179,CRAFT INDIA FOOTWEAR CALICUT,"Kozhikode, Kerala, India",Kerala,682024,3279,2852,0,6997,15458,0,0,6060,12439,Ernakulam,Ernakulam,10.01888763298969,76.30253450412371,0,12433.6,12430.0,12434.69,12428.01,12434.97
180,CRAFT KNIT GARMENTS,"4/684 Nochipalayam Road Veerapandi Post, Palladam Rd, Tiruppur, Tamil Nadu 641605, India",Tamil Nadu,641605,1952,9505,4651,0,0,0,0,0,0,Kangayam,Erode,11.1207516,77.335338875,1,0.0,0.0,0.0,0.0,0.0
181,CRESCENT INTERNATIONAL TYRE TREADS,"9/22 HA IDA, Nalam Mile, ALUVA, Kerala 683112, India",Kerala,683112,4043,16713,0,0,12206,38434,11902,56260,15000,Kunnathunad,Ernakulam,10.08974094375,76.39621829375,0,15015.88,15012.45,15013.36,15023.22,15012.24
182,CROSSINGS INTERNATIONAL DISTRIBUTION,"682037, CSEZ, Kochi, Kakkanad, Kerala 682037, India",Kerala,682037,11290,25199,14925,36061,34054,24295,16140,9568,1143,Ernakulam,Ernakulam,9.9974668375,76.341009940625,0,1141.98,1143.53,1142.91,1143.57,1143.1
183,D.C. MILLS,"Valavanadu, Kalavoor P.O., Kanjikuzhy, Ward 1, Alappuzha, Kerala 688522, India",Kerala,688522,327255,206232,105008,50151,29687,43837,0,0,0,Ambalapuzha,Alappuzha,9.572168202777778,76.32190507222222,0,0.0,0.0,0.0,0.0,0.0
184,D.M.G EXPORTS,"42/60, Kumar Nagar, Renganatha Puram, Tiruppur, Tamil Nadu 641602, India",Tamil Nadu,641602,137072,129675,58660,0,0,0,0,0,0,Tiruppur,Coimbatore,11.121108205263155,77.34359659473684,1,0.0,0.0,0.0,0.0,0.0
185,D.S.P. KNITTING COMPANY,"Bridge Way Colony Extension, Tiruppur, Tamil Nadu 641602, India",Tamil Nadu,641602,3107,12979,2304,23429,8564,5068,47083,1336,915,Tiruppur,Coimbatore,11.121108205263155,77.34359659473684,1,913.71,918.04,924.35,920.81,919.28
186,D2D INTERNATIONAL,"1/37, Nochipalayam, Veerapandi, Tiruppur, Tamil Nadu 641605, India",Tamil Nadu,641605,78659,124517,212457,259268,451487,187058,128590,264015,481685,Kangayam,Erode,11.1207516,77.335338875,1,482005.93,481750.65,481369.77,481627.45,480900.81
187,DECE TOOLS,"2XXQ+F5F, Gopalakrishnapuram, Ganapathy, Coimbatore, Tamil Nadu 641006, India",Tamil Nadu,641006,649,0,0,0,0,0,0,0,0,Coimbatore North,Coimbatore,11.059443936363635,76.99888995,1,0.0,0.0,0.0,0.0,0.0
188,DEEKAY KNITWEARS,"SF NO.229, KARAIPUDHUR ARULPURAM, PALLADAM, RAOD, Arulpuram, Tiruppur, Tamil Nadu 641605, India",Tamil Nadu,641605,31261,46917,107196,155883,180093,136083,53556,88727,6037,Kangayam,Erode,11.1207516,77.335338875,1,6006.25,5994.22,5991.4,5986.61,6001.71
189,DEEPA AGENCIES,"39/1384 Four Star Buildings Chittoor Road Valanjambalam, Ernakulam South, Kochi, Kerala 682016, India",Kerala,682016,1479,1425,3353,14860,3074,8750,4154,0,11957,Ernakulam,Ernakulam,9.965396735294116,76.28713604901961,0,11969.04,11968.55,11974.5,11961.4,11974.8
190,DELSEA EXPORTS P.LTD.,"Nambiapuram, Palluruthy, Kochi, Kerala 682006, India",Kerala,682006,524217,405226,509137,512450,157724,0,258296,927125,1638148,Kochi,Ernakulam,9.917652551851852,76.27326455925926,0,1639809.13,1639930.19,1636671.24,1640152.17,1635217.81
191,DELTA PLYWOODS AND BOARDS,"Iringole Rd, PO, Perumbavoor, Kerala 683548, India",Kerala,683548,138000,168300,322200,89700,0,0,625160,3717350,745350,Perumbavoor,Ernakulam,10.114317095238096,76.49678308095238,0,744649.07,745054.05,745014.16,745159.08,745201.79
192,DHANALAKSHMI WEAVING WORKS,"AKG Nagar Housing Colony, Kakkat, Kannur, Kerala 670005, India",Kerala,670005,162103,109057,127511,76034,157096,183493,91957,23003,18886,Kannur,Kannur,11.88568325,75.39104645,3,18864.46,18840.78,18861.75,18830.59,18823.75
193,DHANAM EXPORTS,"3/247, Senthil Nagar, Ganapathi Palayam, Kangayam Main Road, Tamilnadu, Padiyur, Nachipalayam, Tamil Nadu 638701, India",Tamil Nadu,638701,6409,0,0,0,0,0,0,0,0,Kangayam,Erode,11.008906164814816,77.55643352407408,1,0.0,0.0,0.0,0.0,0.0
194,DHANAM TEXTILES,"30, Coral Merchant Street, Mannadi, George Town, Chennai, Tamil Nadu 600001, India",Tamil Nadu,600001,40995,39259,43648,41012,53891,15081,22001,14214,5694,George Town,Chennai,13.08114703448276,80.26748411034482,2,5686.84,5692.86,5688.27,5680.04,5684.48
195,DOLPHIN RUBBER INDUSTRIES,"Industrial Development Plot, Poovanthuruthu, Kottayam, Kerala 686012, India",Kerala,686012,761554,968567,1314232,2035202,1769972,1954678,2126792,1586599,1508514,Kottayam,Kottayam,9.54856711111111,76.52230786666667,0,1500369.59,1498760.36,1506931.62,1498350.5,1498728.79
196,DON TEX,"8/24 F ANGERIPALAYAM ROAD OPP.KONGU VELLALAR SCHOOL TIRUPUR, Mahavishnu Nagar, Pitchampalayam Pudur, Tiruppur, Tamil Nadu 641603, India",Tamil Nadu,641603,5162,28137,99303,66402,108233,71640,53568,21411,17251,Tiruppur,Coimbatore,11.135501066666668,77.34238386666667,1,17241.49,17264.3,17257.3,17263.82,17262.86
197,DREAMS EXPORTS,"7G3C+5GX, Thattarambalam, Mavelikara, Kannamangalam North, Kerala 690103, India",Kerala,690103,63634,0,0,20661,0,8240,6425,0,15636,Mavelikkara,Alappuzha,9.250708,76.51850396153846,0,15638.56,15623.22,15633.2,15631.35,15639.12
198,DURO OVERSEAS TRDING HOUSE,"1143, Mettupalayam Rd, near Murugan Mills, Nesavaalar Colony, Coimbatore, Tamil Nadu 641043, India",Tamil Nadu,641043,1310,1625,1075,0,0,0,2800,0,0,Coimbatore North,Coimbatore,11.02590545,76.94764801666666,1,0.0,0.0,0.0,0.0,0.0
199,DUSTAN WOOD,"Kurichy, Thuruthy, Kerala 686532, India",Kerala,686532,94264,383521,254299,180245,197350,0,14000,0,0,Changanassery,Kottayam,9.502805928070176,76.51869062982456,0,0.0,0.0,0.0,0.0,0.0
200,DYNAMIC TECHNO MEDICALS PVT. LTD.,"Kodikuthimala, Ashokapuram, Edathala, Aluva, Kerala 683101, India",Kerala,683101,253694,156720,181943,253151,270034,238205,297257,298590,398062,Aluva,Ernakulam,10.095680780412373,76.36233782061856,0,398275.71,397272.2,398080.88,398061.41,398269.81
201,EASTERN ENGINEERS,"SF.No.418,Karukkankattor pirivu,Covai main road, Perundurai, Tamil Nadu 638052, India",Tamil Nadu,638052,423,0,0,0,0,0,0,15000,0,Erode,Erode,11.28118388372093,77.58956259534884,1,0.0,0.0,0.0,0.0,0.0
202,EASTERN RUG MILLS,"CCSB Rd, Civil Station Ward, Alappuzha, Kerala 688001, India",Kerala,688001,139500,189521,122600,97521,125718,72676,158641,58391,47641,Ambalapuzha,Alappuzha,9.49638391904762,76.33209264761905,0,47827.93,47781.72,47804.12,47784.11,47765.74
203,EGATE INTERNATIONAL,"Lane 1, VRWA, near State Bank of India, Vyttila, Ernakulam, Kochi, Kerala 682019, India",Kerala,682019,305,0,0,0,0,0,0,0,0,Ernakulam,Ernakulam,9.96996995974026,76.31541058961038,0,0.0,0.0,0.0,0.0,0.0
204,ELAN EXPORTS,"37QR+8H7, Tiruppur, Tamil Nadu 641687, India",Tamil Nadu,641687,170,0,0,0,0,0,0,0,0,Tiruppur,Coimbatore,11.0980518625,77.309765225,1,0.0,0.0,0.0,0.0,0.0
205,ELUMALAI APPARELS,"Gandhi Road, Opposite To Nataraja Sabari Garden,, D-1, Anupparpalayam Pudur, Tiruppur, A.Thirumuruganpoondi, Tamil Nadu 641652, India",Tamil Nadu,641652,14201,1195,0,0,0,0,0,0,0,Tiruppur,Coimbatore,11.1398791,77.31429145,1,0.0,0.0,0.0,0.0,0.0
206,EMIL TRADERS P.LTD.,"M567+639, Meenangadi, Kerala 673591, India",Kerala,673591,10036448,12297164,12753404,15195731,18198674,15174140,21613851,21753085,15125840,Sulthanbathery,Wayanad,11.669487375510204,76.16275356530613,3,14254269.72,14213175.39,14067407.6,14405799.12,14038050.5
207,EMINENT MINI STORES,"7/808, Court Rd, Near Central Fish Market, Mananchira, Kozhikode, Kerala 673001, India",Kerala,673001,56224,109637,62338,54721,22200,22976,0,0,0,Kozhikode,Kozhikode,11.250885012068968,75.78104223908046,3,0.0,0.0,0.0,0.0,0.0
208,EMMANUEL CASHEW INDUSTRIES,"WRP4+F59, Konnathu Mukku - Mathayi Mukku Rd, Chepra, Kerala 691520, India",Kerala,691520,892668,624528,108504,30000,0,0,0,0,0,Kottarakkara,Kollam,8.947908536734694,76.79522364897959,0,0.0,0.0,0.0,0.0,0.0
209,EMPEROR TEXTILES,"Nh 47 Main Road, SS Nagar, Tiruppur, Tamil Nadu 641666, India",Tamil Nadu,641666,500,3500,131,0,0,0,0,0,0,Tirupur,Coimbatore,11.197693457142856,77.3648192,1,0.0,0.0,0.0,0.0,0.0
210,ENGINEERED  ELASTOMER SOLUTIONS CO.,"SDF 16A, IVth Floor, CSEZ, Kakkanad, Kochi, Kakkanad, Kerala 682037, India",Kerala,682037,19202,27920,45004,43823,20401,23206,56187,51285,16078,Ernakulam,Ernakulam,9.9974668375,76.341009940625,0,16091.68,16082.66,16080.42,16066.93,16064.49
211,ENJAYES SPICES & CHEMICAL OILS (P) LTD.,"Spices Hill, Vallicode, Pathanamthitta, Kottayam, Vallicode Kottayam, Kerala 689656, India",Kerala,689656,26207,2089,23097,4113,2422,5019,1131,3013,2099,Kozhenchery,Pathanamthitta,9.21272854,76.80979611333333,0,2099.06,2099.73,2100.75,2096.5,2097.51
212,ENTICE GARMENTS,"No.2, to Muthanampalayam Road, Muthanampalayam (Post),, Nallur, Tiruppur, Tamil Nadu 641606, India",Tamil Nadu,641606,42593,63755,68299,115220,214620,254155,207588,79652,188951,Tiruppur,Coimbatore,11.108007883333332,77.3994223,1,189255.14,189027.64,188690.2,188618.72,189148.52
213,ESCON CHEMICAL COMPANY,"423 A South vellarapilly, po, Kochi, Thekkumbhagom, Kerala 683580, India",Kerala,683580,7150,6850,0,0,0,0,0,0,0,Aluva,Ernakulam,10.13932176153846,76.40794163846154,0,0.0,0.0,0.0,0.0,0.0
214,ESM TEXTILES,"9FXW+32J, Dhalavaipuram, Tamil Nadu 626188, India",Tamil Nadu,626188,20374,2520,0,0,0,0,0,0,0,Rajapalayam,Virudhunagar,9.39403522,77.49731922000001,0,0.0,0.0,0.0,0.0,0.0
215,ESMARIO EXPORT ENTERPRISES,"WHH6+WJW, Kavanad, Sakthikulangara North, Kollam, Kerala 691003, India",Kerala,691003,698751,444411,332906,526816,533705,389956,953787,636410,489700,Kollam,Kollam,8.915929604166667,76.55627739166667,0,487164.91,488408.7,487986.72,487863.33,487301.57
216,ESS GEE GARMENTS,"No:7, MS Nagar 2nd Street, Asirwatham Stores, Kondu Main Road, Appachi Nagar, Kongu Nagar, Tiruppur, Tamil Nadu 641607, India",Tamil Nadu,641607,83268,168177,88617,7429,0,0,0,0,0,Tirupur,Coimbatore,11.1214821,77.36035476666666,1,0.0,0.0,0.0,0.0,0.0
217,ESS PEE KNIT WEAR,"Kangayam Rd, Rajiv Nagar, Bavani Nagar, Tiruppur, Tamil Nadu 641602, India",Tamil Nadu,641602,35578,222009,33715,0,0,36068,10589,365279,10955,Tiruppur,Coimbatore,11.121108205263155,77.34359659473684,1,10953.82,10963.46,10952.42,10968.88,10958.52
218,ESSA GARMENTS,"10, Pushpa Nagr, Kangayam Cross Road, Kannipiran Colony, Binny Compound, Tiruppur, Tamil Nadu 641604, India",Tamil Nadu,641604,12733,4032,0,0,0,0,0,0,0,Tiruppur,Coimbatore,11.096187535483873,77.34985892258065,1,0.0,0.0,0.0,0.0,0.0
219,ESTILO FASHIONS,"C100, 1'ST AVENUE, Chintamani, C Block, Annanagar East, Chennai, Tamil Nadu 600102, India",Tamil Nadu,600102,17196,32593,13464,0,13097,9572,0,0,0,Perambur Purasawalkam,Chennai,13.087009394117649,80.22252395294117,2,0.0,0.0,0.0,0.0,0.0
220,EVEREST WOOD INDUSTRIES,"Xix/318 Kanjirakkadu, Rayonpuram P.O, Perumbavoor Kochi- 683543, Kerala, Ernakulam, Perumbavoor, Kerala 683543, India",Kerala,683543,209148,1969098,2345382,891400,459250,182542,177286,514000,2318325,Kunnathunad,Ernakulam,10.1228594125,76.48358803125,0,2318650.69,2309363.93,2310386.88,2311933.19,2310618.93
221,EVERGREEN EXPORTS,"Willingdon Island, Kochi, Kerala 682003, India",Kerala,682003,380800,1116785,2735846,1901060,3155069,2089040,4144846,5595181,1209471,Kochi,Ernakulam,9.960447846153846,76.27093469230769,0,1265404.02,1262188.67,1223761.23,1222027.0,1219534.36
222,EVERGREEN SORTING TECHNOLOGIES,"519, Athipalayam Rd, Sreevatsa Global Village, Chinnavedampatti, Coimbatore, Tamil Nadu 641049, India",Tamil Nadu,641049,2550,0,0,0,0,0,0,0,0,Coimbatore North,Coimbatore,11.072554814285716,76.98120481428572,1,0.0,0.0,0.0,0.0,0.0
223,EXCEL LEATHERS,"Near KSEB, 68/1637A, Mariakutty John Rd, near Power House Road, Power House Junction, Kacheripady, Kochi, Kerala 682018, India",Kerala,682018,673,937,0,0,0,0,0,0,0,Ernakulam,Ernakulam,9.991596463636364,76.28133009181818,0,0.0,0.0,0.0,0.0,0.0
224,EXIM KNITTERS,"No-1, L I C Colony, 1st Street, College Road, College Road, Odakkadu, Tiruppur, Tamil Nadu 641602, India",Tamil Nadu,641602,4777,0,0,0,0,0,0,0,0,Tiruppur,Coimbatore,11.121108205263155,77.34359659473684,1,0.0,0.0,0.0,0.0,0.0
225,F.G.TRADING COMPANY,"Room No:40/5476, First Floor,Ruquia Chamber, TD Rd, Padma Junction, Pullepady, Kochi, Kerala 682035, India",Kerala,682035,2100,0,0,0,0,0,0,0,0,Ernakulam,Ernakulam,9.979283159183671,76.28271734081633,0,0.0,0.0,0.0,0.0,0.0
226,FABRO TEXTILES,"48H4+2W8, Thiruvanakudi Nagar, Sirupooluvapatti, Tiruppur, Tamil Nadu 641652, India",Tamil Nadu,641652,4156,160,1884,0,0,0,5743,24336,23200,Tiruppur,Coimbatore,11.1398791,77.31429145,1,23203.24,23194.28,23195.26,23194.38,23178.92
227,FACILE MACHINES,"SF.No.21, Sundarapuram to Madukkarai Market Road, Madukkarai Post, Madukkarai, Tamil Nadu 641105, India",Tamil Nadu,641105,19455,21040,19188,2625,0,0,0,0,0,Coimbatore South,Coimbatore,10.913312757142856,76.95360111428572,1,0.0,0.0,0.0,0.0,0.0
228,FAIRWAY CREATIONS,"SF No 343,Ramraj Nagar,80 ft road, near BPL Tower, Gandhi Nagar Post, Thiyagi Palanisamy Nagar, Velampalayam, Tiruppur, Tamil Nadu 641603, India",Tamil Nadu,641603,453,3941,58479,19654,23060,11409,23991,34231,199375,Tiruppur,Coimbatore,11.135501066666668,77.34238386666667,1,198971.34,199178.87,199411.55,199296.79,199111.47
229,FANTOM MARKETING,"J663+5MR, Medical College Approach Rd, Thangaloor, Kerala 680581, India",Kerala,680581,1126,12638,17585,57198,21354,9690,0,0,15850,Thrissur,Thrissur,10.575689350943396,76.22444455660377,3,15862.19,15851.41,15863.1,15860.47,15856.42
230,FAVOUR-ITA INTERNATIONAL,"Door No. XI/408, NH-66, Cheriakadavu, Kannamaly, Cheriakadavu, Kannamaly, Kochi, Kerala 682008, India",Kerala,682008,58345,36025,50676,68447,123635,187772,107659,64693,59190,Kochi,Ernakulam,9.869597658064515,76.26596289354838,0,59086.69,59140.16,59170.63,59194.51,59119.66
231,FCI OEN CONNECTORS LTD.,"29/2089 State Highway 15 Tripunithura, Road, Thykoodam, Vyttila, Kochi, Kerala 682019, India",Kerala,682019,200782,323444,242920,289828,224462,484592,1046776,892011,494142,Ernakulam,Ernakulam,9.96996995974026,76.31541058961038,0,491596.21,491187.75,491056.85,490646.13,490472.63
232,FEBIN MARINE FOODS,"Eramalloor,, Chandiroor, Alappuzha, Kerala 688537, India",Kerala,688537,1025711,1191635,1975858,2177302,1603077,1925676,1713297,1968917,1931880,Cherthala,Alappuzha,9.82172572,76.30522974,0,1910499.41,1904886.6,1902188.96,1903256.01,1911841.23
233,FIBER WONDERS,"M899+27Q Perumpara Juction, Po, Kuruppan Kulangara, Cherthala, Cherthala South, Kerala 688539, India",Kerala,688539,607660,631654,640570,1145128,1222181,1291428,1088561,940280,1466591,Cherthala,Alappuzha,9.66428288888889,76.34121377777778,0,1457538.71,1458120.38,1456143.16,1458478.11,1460461.56
234,FIBRE WORLD,"S.N.V. Road, Kannadikavala, Aryakara, Muhamma, Kerala 688525, India",Kerala,688525,5319908,5890454,6303410,6034021,7056345,5459040,7295257,8110817,8914568,Cherthala,Alappuzha,9.619357622727271,76.35883995454545,0,8705429.99,8923905.58,8882587.56,8797718.25,8843334.07
235,FILATEX VECHUKUNNEL PVT LTD.,"Canal Pirivu, Pampampallam, RR98+25C, Kanjikode, Pudussery East, Kerala 678557, India",Kerala,678557,1051,36042,0,0,0,14056,136154,108738,80240,Chittur,Palakkad,10.800383425,76.83577191666666,1,80110.01,79890.43,80014.52,80028.97,79991.12
236,FILTROWIN INDUSTRIES,"1150c, Subhash Chandra Bose Rd, Jawahar Nagar, Elamkulam, Kochi, Kerala 682020, India",Kerala,682020,472618,658630,624573,837696,838857,622638,792204,780444,739328,Ernakulam,Ernakulam,9.96861736259542,76.30114694656488,0,739031.39,738941.17,740122.52,740485.01,740454.49
237,FINE ART EMPORIUM,"6/140, Synagogue Ln, Jew Town, Kappalandimukku, Mattancherry, Kochi, Kerala 682002, India",Kerala,682002,48,0,0,0,0,225,0,0,0,Kochi,Ernakulam,9.957255232894736,76.25402236842105,0,0.0,0.0,0.0,0.0,0.0
238,FIVE STAR OFFSET PRINTERS,"Press Kottadayil Building, Near North,, Lakeshore Hospital, Nettoor, Maradu, Kochi, Kerala 682040, India",Kerala,682040,925,950,1192,0,0,3000,0,0,0,Kanayannur,Ernakulam,9.923889512121212,76.31571828181819,0,0.0,0.0,0.0,0.0,0.0
239,FLOW LINK SYSTEMS P. LTD.,"189 Uthupalayam, Avinashi Rd, Arasur, Uthupalayam, Tamil Nadu 641407, India",Tamil Nadu,641407,5613,85473,139120,26399,15570,45971,44887,13230,49044,Palladam,Coimbatore,11.076832133333331,77.14018266666666,1,49252.75,49296.39,49228.01,49241.79,49183.78
240,FLOWER KNITTING MILLS,"487V+23V, 50 Feet Rd Lakshmi Nagar, Bridge Way Colony Extension, Tiruppur, Tamil Nadu 641602, India",Tamil Nadu,641602,78111,7980,10761,3102,30460,2970,0,0,0,Tiruppur,Coimbatore,11.121108205263155,77.34359659473684,1,0.0,0.0,0.0,0.0,0.0
241,FLUID PUMPS AND EQUIPMENT INDIA PVT LTD.,"Fluid Pumps & Equipment India Pvt Ltd 7/222, Nagamanaickenpalayam, Sakthi Nagar, Pattanam, Coimbatore, Sakthi Nagar, Tamil Nadu 641016, India",Tamil Nadu,641016,92456,203859,94244,151394,76823,85381,48660,17550,0,Coimbatore South,Coimbatore,10.994242742857145,77.05289665714285,1,0.0,0.0,0.0,0.0,0.0
242,FOAM MATTINGS INDIA LTD.,"beach, Civil Station Ward, Alappuzha, Kerala 688012, India",Kerala,688012,21414,45613,7571,0,7497,0,8161,0,0,Ambalapuzha,Alappuzha,9.490780478571429,76.32486257142857,0,0.0,0.0,0.0,0.0,0.0
243,FOCUS APPARELS,"AV Building, Cherattukuzhi Road, Down Hill, Malappuram, Kerala 676519, India",Kerala,676519,15887,17386,2342,3200,740,0,1322,0,0,Ernad,Malappuram,11.05071221125,76.03817599,3,0.0,0.0,0.0,0.0,0.0
244,FOODCO DELICASIES INDIA P.LTD.,"R8MQ+C3G, Cherthala - Arookutty Rd, Panavally, Kerala 688526, India",Kerala,688526,886832,1146108,1041544,449007,116411,0,0,0,177573,Cherthala,Alappuzha,9.806103366981132,76.35243924716981,0,178191.68,178361.37,178279.62,178157.08,178520.28
245,FOOT WELL EXIM,"Aravankara - Mini Ootty - Arimbramala Rd, Pookkottur, Kerala 676517, India",Kerala,676517,35874,0,24684,35365,87075,104408,257905,79068,0,Ernad,Malappuram,11.081878113043478,76.06632696956521,3,0.0,0.0,0.0,0.0,0.0
246,FRESCO GARMENTS,"1A, Pugazhum perumalpuram, 3rd street Kumarananthapuram, Vengatappa Gounder Layout, Kumarnathapuram, Tiruppur, Tamil Nadu 641602, India",Tamil Nadu,641602,1580,3888,0,0,0,0,0,12,0,Tiruppur,Coimbatore,11.121108205263155,77.34359659473684,1,0.0,0.0,0.0,0.0,0.0
247,FRIENDS MARINE INDUSTRIES,"R8C3+Q4R Between konkery bridge and Railway cross, Vattathara, Ezhupunna, Kerala 688537, India",Kerala,688537,356920,325700,421164,368550,250700,160372,621494,733560,511870,Cherthala,Alappuzha,9.82172572,76.30522974,0,511626.19,511636.88,511688.39,511687.35,511311.4
248,FUCHSIA GARMENTS,"Sf No:14/2, Parapalayam, Mangalam Road, Mangalam Road, near Mps Theatre, Vadkuthottam, Parapalayam, Karuvampalayam, Tiruppur, Tamil Nadu 641604, India",Tamil Nadu,641604,1750,0,0,0,0,0,0,0,0,Tiruppur,Coimbatore,11.096187535483873,77.34985892258065,1,0.0,0.0,0.0,0.0,0.0
249,G.K.S BUSINESS ASSOCIATES,"GKS COMPLEX, 4/450 , AROOKUTTY FERRY ROAD , AROOR 688534, Aroor gram panchayat, Kochi, Kerala 688534, India",Kerala,688534,2079372,1709738,1532460,1493552,1720703,4568320,3250417,3518061,2290801,Cherthla,Alappuzha,9.871729377142858,76.30438504,0,2311398.45,2312832.17,2313582.57,2302744.2,2306366.39
250,G.M.EXPORT HOUSE,"48PM+X9X, Unnamed Road, Mahavishnu Nagar, Pitchampalayam Pudur, Tiruppur, Tamil Nadu 641603, India",Tamil Nadu,641603,19310,30145,14774,7895,1284,0,0,0,0,Tiruppur,Coimbatore,11.135501066666668,77.34238386666667,1,0.0,0.0,0.0,0.0,0.0
251,G.P.TEXTILES,"X349+QM7, Anna Nagar, Karur, Tamil Nadu 639001, India",Tamil Nadu,639001,20974,18317,10179,11844,11765,8817,34088,0,0,Karur,Karur,10.959860798571428,78.07532323285714,1,0.0,0.0,0.0,0.0,0.0
252,G.R.B.DAIRY FOODS P.LTD.,"PHASE I & II, SIDCO Industrial Estate, Sipcot Ph. I, Hosur, Tamil Nadu 635126, India",Tamil Nadu,635126,8584,0,0,0,0,0,0,0,0,Hosur,Krishnagiri,12.752449386666664,77.80389044666667,1,0.0,0.0,0.0,0.0,0.0
253,GAJENDRA AGENCIES,"52, Bharathi Nagar, 1st St, Bharathi Nagar, Raja Nagar, Ganapathy, Coimbatore, Tamil Nadu 641006, India",Tamil Nadu,641006,23072,22610,22300,23951,23566,0,0,0,0,Coimbatore North,Coimbatore,11.059443936363635,76.99888995,1,0.0,0.0,0.0,0.0,0.0
254,GALAXY GARMENTS,"12, Therkku Thottam Odai Rd, Karuvampalayam, Tiruppur, Tamil Nadu 641604, India",Tamil Nadu,641604,6640,0,0,0,0,11983,0,0,0,Tiruppur,Coimbatore,11.096187535483873,77.34985892258065,1,0.0,0.0,0.0,0.0,0.0
255,GANGAI GARMENTS,"S F No-217/I, Gangai Gardens, Kavilipalayam Road, Sirupooluvapatti, Gandhi Nagar, Gandhi Nagar, SBI Colony, Gandhinagar, Velampalayam, Tiruppur, Tamil Nadu 641603, India",Tamil Nadu,641603,23362,8489,0,0,0,0,0,0,0,Tiruppur,Coimbatore,11.135501066666668,77.34238386666667,1,0.0,0.0,0.0,0.0,0.0
256,GANGO GARMENTS,"487C+5VP, Vivekananda Nagar, Sri Vidya Nagar, Tiruppur, Tamil Nadu 641603, India",Tamil Nadu,641603,1025,0,0,1918,7745,0,5249,0,0,Tiruppur,Coimbatore,11.135501066666668,77.34238386666667,1,0.0,0.0,0.0,0.0,0.0
257,GARTEX EXPORTS (INDIA) P. LTD.,"2H26+HH8, Kangayam Rd, opp. Telephone exchange, Kalimedu, Tiruppur, Kangeyam, Tamil Nadu 638701, India",Tamil Nadu,638701,1963,2237,0,10104,2263,2522,21212,60390,48326,Kangayam,Erode,11.008906164814816,77.55643352407408,1,48202.5,48206.65,48242.19,48215.5,48195.66
258,GATES WEARS ,"362/3A, PUDUPALAYAM Nachipalayam post Vijayapuram via, Kangayam Rd, Tiruppur, Tamil Nadu 641606, India",Tamil Nadu,641606,147392,192556,287897,471404,596863,340276,480098,324111,288056,Tiruppur,Coimbatore,11.108007883333332,77.3994223,1,288291.93,288598.96,288301.39,288527.29,288613.8
259,GAYATHRI MATCH INDUSTRIES,"police quarters, opposite KR bakery, Agraharam, Singanallur, Coimbatore, Tamil Nadu 641005, India",Tamil Nadu,641005,47755,0,0,30050,0,0,0,0,0,Coimbatore South,Coimbatore,11.015121747058824,77.01368662941177,1,0.0,0.0,0.0,0.0,0.0
260,GEEKAY SPECIALITY CHEMICALS,"Thrissur,, Ollur Industrial Estate, Ollur, Thrissur, Kerala 680306, India",Kerala,680306,76730,149280,8204,41480,34770,10191,53368,54560,16197,Ollur,Thrissur,10.478034959756098,76.24069400365853,0,16183.28,16184.6,16183.16,16180.25,16183.43
261,GEENA GARMENTS,"410,r.k nagar,pitchampalayam pudur post, PN Rd, Raja Nagar, Pitchampalayam Pudur, Tiruppur, Tamil Nadu 641602, India",Tamil Nadu,641602,83021,193211,56109,6284,0,0,0,0,0,Tiruppur,Coimbatore,11.121108205263155,77.34359659473684,1,0.0,0.0,0.0,0.0,0.0
262,GEM EXPORTS & IMPORTS,"S.F NO.278 & 279, Sundharam Nagar West, Erode Main Road, Andankoil West, Karur, Tamil Nadu 639002, India",Tamil Nadu,639002,3713,19788,9823,7300,0,0,0,0,25714,Aravakurichi,Karur,10.96040589130435,78.06453304347826,1,25656.61,25672.74,25662.67,25675.97,25673.01
263,GENE APPARELS,"331/4t, 15, 15 Velampalayam Main Rd, Periyar Colony, Velampalayam, Tiruppur, A.Thirumuruganpoondi, Tamil Nadu 641652, India",Tamil Nadu,641652,71574,64595,58036,44294,23866,29153,364,15278,21255,Tiruppur,Coimbatore,11.1398791,77.31429145,1,21258.09,21238.98,21282.06,21262.41,21262.47
264,GENERAL RUBBERS,"MGHX+HMC, Industrial Estate Rd, Ettumanoor, Kerala 686631, India",Kerala,686631,162391,223085,2277826,1274609,5940,630418,2075433,2374803,2633256,Kottayam,Kottayam,9.673597835897436,76.55975298397436,0,2625632.7,2637017.85,2640253.29,2638326.75,2622198.74
265,GEO SEAFOODS,"Pallichal Road, Valummel, Pallichal, Kochi, Kerala 682005, India",Kerala,682005,4423302,2951520,3717165,4108617,3337145,3093427,3093498,3323084,2923359,Kochi,Ernakulam,9.940253061111113,76.25960161388889,0,2943646.27,2941680.4,2935698.14,2948166.76,2932769.72
266,GEORGE ENGINEERING,"Muringoor P. O, Chalakudy, Thrissur, 78PR+M94, Muringur Vadakkummuri, Kerala 680316, India",Kerala,680316,29355,7230,11637,6200,435,3900,0,0,430,Muringur Vadakkummuri,Thrissur,10.2831677,76.3388184,0,433.97,434.47,432.1,435.25,434.39
267,GILBARCO VEEDER ROOT INDIA PVT LTD,"W4, Chettipalayam Rd, near L&T Campus, Srinivasa Nagar, Eachanari, Malumichampatti, Podanur, Tamil Nadu 641021, India",Tamil Nadu,641021,241608,127726,182177,34196,0,37682,39109,293459,191255,Coimbatore South,Coimbatore,10.93864634,76.9795388,1,190475.14,190663.27,189960.75,190610.22,190329.7
268,GLENROCK RUBBER PRODUCTS P. LTD.,"Mallikassery, Kerala 686577, India",Kerala,686577,3255796,3770304,3643845,4089577,3886740,3383469,5380919,2875188,3718903,Meenachil,Kottayam,9.640891316,76.737008176,0,3680264.94,3699472.02,3698581.24,3694225.15,3710038.2
269,GLOBAL EXPORTERS,"2nd Floor,307/C6,KSIE Building Cochin InternationalContainer Freight Staton, Old Anavathil Jn ICTT Road, P.O, Udyogamandal, Kalamassery, Kochi, Kerala 683501, India",Kerala,683501,1188834,1496717,1106699,1132793,1400630,1781684,2283208,1598362,2379745,Ernakulam,Ernakulam,10.065396075,76.305478,0,2383144.05,2374863.59,2378365.74,2373815.83,2379707.93
270,GLOBAL LIGHTING TRADES ,"G635+RX6, Kanjirangady, Koorkenchery, Thrissur, Kerala 680007, India",Kerala,680007,10052,9277,8314,2846,4992,3018,9880,3968,0,Koorkenchery,Thrissur,10.497142351612904,76.20759540645162,0,0.0,0.0,0.0,0.0,0.0
271,GLOBEX GLOVES,"3F3J+62X, Vengola, Kerala 683556, India",Kerala,683556,5512,0,0,0,0,0,0,0,0,Kunnathunad,Ernakulam,10.083125960465116,76.47373215813954,0,0.0,0.0,0.0,0.0,0.0
272,GOKILAA GARMENTS,"Old No: 3/306/C, S.F.No: 302/2A1, - , Kuppandampalayam, Koolipalayam Ring Rd, AB Nagar, Veerapandi, Tiruppur, Tamil Nadu 641605, India",Tamil Nadu,641605,23748,26094,47789,2747,14400,2338,13509,7253,12216,Kangayam,Erode,11.1207516,77.335338875,1,12202.66,12214.37,12212.12,12207.77,12210.28
273,GOKUL KNIT FABS,"kuppandampalayam, 3/547, Balaji Nagar, Veerapandi, Tiruppur, Tamil Nadu 641605, India",Tamil Nadu,641605,1757,16566,7579,0,0,0,0,48143,0,Kangayam,Erode,11.1207516,77.335338875,1,0.0,0.0,0.0,0.0,0.0
274,GOLD STAR EXPORTS,"No. 11, Dharga Rd, Dadashamakan, Jamalia, Chennai, Tamil Nadu 600012, India",Tamil Nadu,600012,52500,0,0,0,0,0,0,0,0,Perambur Purasawalkam,Chennai,12.808351972727271,79.92574654545454,2,0.0,0.0,0.0,0.0,0.0
275,GOLDEN STITCH EXPORTS,"JHFH+M8V, Vatakara - Nadapuram - Thottilpalam Rd, Chorode, Kerala 673103, India",Kerala,673103,18333,16038,14606,2967,3884,2148,3092,0,0,Vadakara,Kozhikode,11.595530684615383,75.58199736153846,3,0.0,0.0,0.0,0.0,0.0
276,GOOD EARTH ORGANIC,"5CFP+MQ4, Enchackal Kavala, Kalady, Kerala 683574, India",Kerala,683574,49600,71150,143500,266012,124144,165696,183617,130362,96000,Aluva,Ernakulam,10.182817160958905,76.45845344931507,0,96046.2,95982.28,95866.2,95934.79,96014.06
277,GOODWILL APPARELS,"11-A, Kottai Thottam, near Sivan Theatre Road, Postal Colony, North, Tiruppur, Tamil Nadu 641602, India",Tamil Nadu,641602,3949,15552,12304,0,6380,3714,958,2009,855,Tiruppur,Coimbatore,11.121108205263155,77.34359659473684,1,849.1,849.99,849.09,847.77,848.91
278,GOWARTHINI EXPORTS,"Sf No-648/2, Palladam Road, Back To Sriprathi Weigh Bridg, Veerapandi Post, Palladam Main Rd, Karuppa Gaundanpalayam, Tiruppur, Tamil Nadu 641605, India",Tamil Nadu,641605,390,736,0,321,0,960,365,0,6582,Kangayam,Erode,11.1207516,77.335338875,1,6598.46,6594.59,6586.18,6589.24,6594.18
279,GRACY INCORPORATION,"2/1083-a 1, N V B Lay Out, Murunga Palayam Via, Andipalayam Villa, Murunga Palayam, KPN Colony, Valipalayam, Tiruppur, Tamil Nadu 641608, India",Tamil Nadu,641608,9215,766,0,0,0,0,0,0,0,Valipalayam,Tiruppur,11.0773235,77.36649935,1,0.0,0.0,0.0,0.0,0.0
280,GRAND MARINE FOODS,"II/750A, Industrial Development Area, Aroor gram panchayat, Kochi, Kerala 688534, India",Kerala,688534,2555566,3384406,4562248,3752211,3049601,2050189,2992720,2872575,2119800,Cherthla,Alappuzha,9.871729377142858,76.30438504,0,2125099.49,2120642.66,2118381.73,2119747.59,2120205.32
281,GRANDMAS FOOD PRODUCTS,"Peringuzha, XJ52+MH5, Perumpalloor P.O., Peringuzha, Ernakulam, Muvattupuzha, Kerala 686673, India",Kerala,686673,818592,773251,1014785,850994,944196,1323558,806152,719376,1238894,Muvattupuzha,Ernakulam,9.98582857409836,76.58100003016393,0,1238954.57,1240041.89,1235230.98,1242396.12,1239887.76
282,GRASS GREEN CLOTHING,"2, Mariamman Kovil St, Anupparpalayam Pudur, Tiruppur, A.Thirumuruganpoondi, Tamil Nadu 641602, India",Tamil Nadu,641602,1064,12544,9633,64211,149140,17026,43188,47034,45028,Tiruppur,Coimbatore,11.121108205263155,77.34359659473684,1,45043.32,45076.92,45071.33,45061.85,45055.94
283,GREAT INDIAN TEXTILES,"W86X+8XH, Kannur - Alavil - Valapattanam Rd, Chirakkal, Kerala 670009, India",Kerala,670009,48071,7130,6497,9965,6281,13952,22675,15486,3382,Kannur,Kannur,11.920890711320755,75.3293386,3,3383.4,3385.8,3390.18,3386.68,3387.93
284,GREAT WIN EXPORTS,"24, E92, Kalai Nagar 13th W St, Kamaraj Nagar, Thiruvanmiyur, Chennai, Tamil Nadu 600041, India",Tamil Nadu,600041,308542,909840,2429440,2892300,2936634,2358728,498000,214750,2426605,Chennai City Corporation,Kanchipuram,12.979668667676767,80.25791996868686,2,2393012.9,2391427.41,2402224.32,2400999.16,2397752.23
285,GREEN FIELD APPARELS,"4/353, Pappa Nagar, 2nd Street, Pitchampalayam Pudu Post, Lakshmi Nagar, Lakshmi Nagar, Tirupur, Guduvancheri, Tamil Nadu 641602, India",Tamil Nadu,641602,6907,3626,0,85909,19431,1557,8527,16016,4378,Tiruppur,Coimbatore,11.121108205263155,77.34359659473684,1,4363.53,4368.16,4370.4,4372.84,4368.02
286,GREEN INDIA EXPORTS,"90, Palaghat Rd, Pollachi, Tamil Nadu 642001, India",Tamil Nadu,642001,95945,328336,248150,194040,260705,295045,397627,392460,373037,Pollachi,Coimbatore,10.649983639130436,77.0488457,1,370033.84,368489.87,367887.35,366909.89,369698.2
287,GREEN METHOD ENGINEERING P.LTD.,"ATC Building, Moolepadam Nagar Road HMT Junction, Kalamassery, HMT Junction, Moolepadam Nagar, South Kalamassery, Kalamassery, Kochi, Kerala 683104, India",Kerala,683104,13750,3400,10295,7000,3900,2500,0,7750,1250,Kanayannur,Ernakulam,10.057542963636363,76.31917809090909,0,1251.15,1248.91,1248.53,1248.53,1250.09
288,GREEN VALLEY CONDIMENTS,"Aluva - Mala Rd, Ayroor, Attupuram, Kerala 683579, India",Kerala,683579,32590,0,0,11857,6854,17524,30094,109227,45093,Paravur,Ernakulam,10.180445387272728,76.31635012181819,0,45057.39,45120.86,45111.01,45040.94,45073.33
289,GREEN WORLD COIR EXPORTS,"1/335, Rose St, Fort Nagar, Fort Kochi, Kochi, Kerala 682001, India",Kerala,682001,1402100,1718000,988000,675330,676000,338000,259000,182000,0,Kochi,Ernakulam,9.961975513432836,76.24336774328359,0,0.0,0.0,0.0,0.0,0.0
290,GREENLEAF EXTRACTIONS PVT LTD,"Plot No: 15, KINFRA HI-TECH Park, Opp Co-operative Medical College, P.O, HMT Colony, North Kalamassery, Kalamassery, Kochi, Kerala 683503, India",Kerala,683503,73243,129849,145582,187943,235841,271274,248924,201267,319738,Kanayannur,Ernakulam,10.0582879625,76.337153153125,0,319131.36,318641.6,318533.18,318681.72,319289.41
291,GREENWAY EXIMS,"476/1B, K.Chettipalayam, Dharapuram Road, Jothi Nagar, K Chettipalayam, Tiruppur, Tamil Nadu 641608, India",Tamil Nadu,641608,11106,90594,0,0,0,7655,51712,115468,60945,Chettipalayam,Tiruppur,11.0773235,77.36649935,1,61312.7,61142.02,61257.5,61105.86,61092.87
292,GREETINGS KNITWEAR,"7/11, T S R Layout, 1st Street, Kongu Main Road, Kongu Main Road, Tiruppur, Tamil Nadu 641607, India",Tamil Nadu,641607,5107,54127,73908,135523,133407,170399,182238,354357,399106,Tirupur,Coimbatore,11.1214821,77.36035476666666,1,398823.95,398504.5,398949.04,398544.54,398933.68
293,GRIPPO POLYMERS,"XXX7+GXF, Edappally - Panvel Hwy, Kerala 676508, India",Kerala,676508,3223,0,0,0,0,0,0,0,0,Tirurangadi,Malappuram,11.054313333333331,75.93619846,3,0.0,0.0,0.0,0.0,0.0
294,GRN ENTERPRISES LLP,"X745+262, 1st Main Rd Sandeep Ave, Sandeep Avenue, Sakthimoorthiamman Nagar, Palavakkam, Chennai, Tamil Nadu 600041, India",Tamil Nadu,600041,444500,156000,0,0,28000,0,40854,0,0,Chennai City Corporation,Kanchipuram,12.979668667676767,80.25791996868686,2,0.0,0.0,0.0,0.0,0.0
295,HAILSTONE INNOVATIONS,"Kinfra Industrial Park, Kanjikode, Kinfra Textile Park, Kerala 678621, India",Kerala,678621,75422,5922,127,0,0,14128,0,5759,39907,Palakkad,Palakkad,10.801037787179489,76.76718873076923,1,39892.34,39892.57,39917.0,39896.43,39884.53
296,HANDICRAFTS DEVE. CORPN. OF KERALA LTD.,"Kerala, India",Kerala,682002,255,107,90,343,450,411,0,0,355,Kochi,Ernakulam,9.957255232894736,76.25402236842105,0,356.4,355.46,353.94,354.2,355.12
297,HAREY KRISHNA TRADERS,"S.NO,10, NEAR RAMANUIJA RAGAR), Kamarajar Rd, Gandhipudur, Lakshmi Ammal Layout, Lakshmipuram, Uppilipalayam, Coimbatore, Tamil Nadu 641015, India",Tamil Nadu,641015,4234,1362,3316,0,0,0,0,0,0,Coimbatore South,Coimbatore,11.01292837,77.02185572,1,0.0,0.0,0.0,0.0,0.0
298,HARIKRISH AGENCIES&MANUFACTURES,"137, Subramanyam Road, R.S. Puram, Coimbatore, Tamil Nadu 641002, India",Tamil Nadu,641002,200,0,0,0,0,0,0,2824,0,Coimbatore South,Coimbatore,11.010469648529412,76.95122688088236,1,0.0,0.0,0.0,0.0,0.0
299,HARIKRISHNA AYURVEDIC REMEDIES,"Kattakkada Road, near Ayyappa Temple, Balaramapuram, Kerala 695501, India",Kerala,695501,1000,0,0,0,0,0,0,0,0,Neyyattinkara,Thiruvananthapuram,8.430515920588235,77.0233470007353,0,0.0,0.0,0.0,0.0,0.0
300,HARROW EXPORTS,"585H+249,  , Sankarapuram, Choolaimedu, Chennai, Tiruppur, Tamil Nadu 641652, India",Tamil Nadu,641652,5618,5698,2084,1676,1046,0,0,200,0,Tiruppur,Coimbatore,11.1398791,77.31429145,1,0.0,0.0,0.0,0.0,0.0
301,HASEENA APPARELS,"NO:50, LAKSHMI BUILDING, Tiruppur - Kangayam Rd, opp. BSNL EXCHANGE, Rajiv Nagar, Karuvampalayam, Tiruppur, Tamil Nadu 641604, India",Tamil Nadu,641604,4869,11745,8118,3200,0,0,0,0,0,Tiruppur,Coimbatore,11.096187535483873,77.34985892258065,1,0.0,0.0,0.0,0.0,0.0
302,HERBAL ISOLATES P. LTD.,"XCVM+QPG, Aikaranad North, Kerala 682310, India",Kerala,682310,1362951,1440981,1693404,1331492,1435757,1467381,1663826,1537188,1815017,Kunnathunad,Ernakulam,9.98790642,76.430152955,0,1818090.14,1815689.02,1818875.92,1820596.15,1815844.52
303,HI STYLE EXPORTS,"Bus stop, Bus Stop, College Rd, near Konganagiri, Odakkadu, Tiruppur, Tamil Nadu 641602, India",Tamil Nadu,641602,44538,7416,576,0,5096,0,0,0,0,Tiruppur,Coimbatore,11.121108205263155,77.34359659473684,1,0.0,0.0,0.0,0.0,0.0
304,HIC-ABF SPECIAL FOODS P.LTD.,"Project Colony Road, Industrial Development Area, Aroor, Aroor gram panchayat, Kochi, Kerala 688534, India",Kerala,688534,649689,511180,777811,795113,1079221,537258,416524,865475,1156318,Cherthla,Alappuzha,9.871729377142858,76.30438504,0,1155601.28,1153566.58,1155469.02,1156252.18,1155280.81
305,HIGH SEAS EXIM,"National Highway 47, Chandiroor, Kerala 688535, India",Kerala,688535,1912818,1509293,2075214,2523085,1897481,1779017,1269460,1267645,802583,Cherthala,Alappuzha,9.8564922,76.32294531666666,0,801863.41,803091.87,802158.89,803075.42,803119.7
306,HINDUSTAN TEXTILES,"VSS Complex, Mettupalayam Rd, Daniel Nagar, Thoppampatti Pirivu, K. Vadamadurai, Kurudampalayam, Coimbatore, Tamil Nadu 641017, India",Tamil Nadu,641017,36932,17415,29045,29487,21503,15768,38775,9416,10689,Coimbatore North,Coimbatore,11.088758233333332,76.9390758,1,10721.44,10708.09,10699.42,10701.34,10701.23
307,HOCH BIOTECH,"Annanad Post, Chalakudy, 78HC+7F8, Thrissur, Annanad, Kerala 680309, India",Kerala,680309,6125,0,0,0,0,0,0,0,0,Mukundapuram,Thrissur,10.27446588125,76.32397074375,0,0.0,0.0,0.0,0.0,0.0
308,HOLMARC OPTO-MECHATRONICS PVT LTD,"B.7, HMT Rd, Industrial Estate, P.O, Kalamassery, Kochi, Kerala 683503, India",Kerala,683503,2808,3167,1348,3043,1140,0,3167,2732,2388,Kanayannur,Ernakulam,10.0582879625,76.337153153125,0,2391.66,2390.08,2393.85,2392.88,2389.33
309,HONEY AQUA SEAFOODS,"3, 3rd Cross Rd, Bharathiyar Street, North Gandhi Gramam, Karur, Senapiratti, Tamil Nadu 639004, India",Tamil Nadu,639004,549764,152480,0,0,0,0,0,0,0,Karur,Karur,10.94863458,78.09967134,1,0.0,0.0,0.0,0.0,0.0
310,HONEY WELL CREATION,"49M4+5C6, KN Palayam, Kanjam Palayam Pirivu, Tiruppur, Tamil Nadu 641607, India",Tamil Nadu,641607,1382,7908,32563,7371,14696,42560,19525,244453,274787,Tirupur,Coimbatore,11.1214821,77.36035476666666,1,273831.24,274293.05,273867.9,273856.3,274389.18
311,HOTEL RESIDENCY TOWER,"South Gate of Secretariat, Press Rd, Statue, Palayam, Thiruvananthapuram, Kerala 695001, India",Kerala,695001,180,0,0,0,0,0,0,0,0,Thiruvananthapuram,Thiruvananthapuram,8.49500495595238,76.95102814523808,0,0.0,0.0,0.0,0.0,0.0
312,HYDRO PRESS INDUSTRIES,"SF no: 378/3, 279/1, PO, Ganesh Nagar, Malumichampatti, Tamil Nadu 641050, India",Tamil Nadu,641050,14065,0,7223,49650,0,0,9800,0,0,Coimbatore,Coimbatore,10.9198972,76.9985741,1,0.0,0.0,0.0,0.0,0.0
313,HYKA POLYURETHANELS,"23G4+J3V, Malappuram, Kerala 676528, India",Kerala,676528,62500,20334,11495,0,0,0,0,0,0,Tirurangadi,Malappuram,11.029406320930232,76.03106219069767,3,0.0,0.0,0.0,0.0,0.0
314,IDUMBAN KNITTERS,"18D, AB Nagar, Velampalayam, Tiruppur, Tamil Nadu 641603, India",Tamil Nadu,641603,5292,0,3181,0,0,0,850,987,0,Tiruppur,Coimbatore,11.135501066666668,77.34238386666667,1,0.0,0.0,0.0,0.0,0.0
315,ILLICKAL EXPORTS,"Illikkal Kallu, Illikkal Kallu Rd, Moonnilavu, Poonjar Vadakkekara, Kerala 686586, India",Kerala,686586,378,0,0,0,0,0,0,0,0,Meenachil,Kottayam,9.7493429375,76.78570731875,0,0.0,0.0,0.0,0.0,0.0
316,IMPEL MACHINES P.LTD.,"SF.NO:-343.DR.UDAYAMOORTHY NAGAR,NEAR, Thadagam Main Rd, Luna Nagar, Edayarpalayam, Coimbatore, Tamil Nadu 641025, India",Tamil Nadu,641025,5500,5000,27950,7000,5500,0,0,0,0,Coimbatore North,Coimbatore,11.038392615384616,76.92818573846154,1,0.0,0.0,0.0,0.0,0.0
317,INDIAN AQUATIC PRODUCTS,"Sakthikulangara, Kollam, Kerala 691581, India",Kerala,691581,830924,1020091,773433,625616,330490,157269,304300,566700,362700,Kollam,Kollam,8.928226436363635,76.54678488181818,0,363931.35,363447.05,363072.6,363012.23,363160.72
318,INDIAN FRESH POLLACHI COCONUT EXPORTS,"Palaghat, Pollachi, Tamil Nadu 642001, India",Tamil Nadu,642001,69000,32590,109437,0,56500,70000,390500,239050,114200,Pollachi,Coimbatore,10.649983639130436,77.0488457,1,114377.33,114413.51,114414.86,114382.25,114363.29
319,INDIAN MARINE INDUSTRIES,"W779+J78, Nambiapuram Rd, Palluruthy, Kochi, Kerala 682006, India",Kerala,682006,6308500,6123040,7013052,9421110,4616990,2889470,3339626,2137854,3617350,Kochi,Ernakulam,9.917652551851852,76.27326455925926,0,3656993.0,3651283.84,3645332.06,3627065.97,3648149.89
320,INDO TEXNOLOGY P.LTD.,"229/5C Irugur, to, Chinniyampalayam Road, Arasamarath Thottam, Athappagoundenpudur, Coimbatore, Tamil Nadu 641103, India",Tamil Nadu,641103,16660,38790,0,11621,0,0,0,0,0,Mettupalayam,Coimbatore,11.015382333333331,77.06624403333333,1,0.0,0.0,0.0,0.0,0.0
321,INDROYAL CRAFTS,"Kinfra Apperal Parks Indroyal, road, Thumba, Thiruvananthapuram, Kerala 695586, India",Kerala,695586,126183,128524,200949,40154,66184,27166,252552,207735,122719,Thiruvananthapuram,Thiruvananthapuram,8.56802360909091,76.84363541818182,0,122940.33,122856.68,122571.77,122896.22,122495.33
322,INFRA ELEVATORS INDIA,"35/2265A, Infra House, BC Lane, Church Rd, Pallinada, Palarivattom, Kochi, Kerala 682025, India",Kerala,682025,13068,4853,4328,3842,215,500,1406,6399,4842,Ernakulam,Ernakulam,10.000372668965516,76.30783643448275,0,4849.37,4848.17,4848.69,4848.89,4852.16
323,INNO MOTION TECHNOLOGIES,"XVI/235, Choornikkara, Aluva, Kerala 683106, India",Kerala,683106,63308,56866,7702,16212,62461,87984,52318,96517,83799,Aluva,Ernakulam,10.080344491666668,76.34267441666667,0,84033.8,83981.54,83961.08,83973.43,83999.88
324,INSTITUTE OF MOBILE PHONE TECHNOLOGY P.LTD.,"3W93+54W, Chemmad-Thalappara Rd, Muttichira, Moonniyur, Kerala 676311, India",Kerala,676311,525,334,0,0,0,0,0,0,0,Tirurangadi,Malappuram,11.06098252,75.89344396,3,0.0,0.0,0.0,0.0,0.0
325,INTEGRATED RUBIAN EXPORTS LTD.,"V8P2+375, Aroor gram panchayat, Kochi, Kerala 688534, India",Kerala,688534,554490,93270,21934,0,0,0,0,0,0,Cherthla,Alappuzha,9.871729377142858,76.30438504,0,0.0,0.0,0.0,0.0,0.0
326,INTER COTTONS,"48PJ+3HQ, A Block, Gandhinagar, Velampalayam, Tiruppur, Tamil Nadu 641603, India",Tamil Nadu,641603,12649,6604,15846,3420,46947,66770,43416,0,0,Tiruppur,Coimbatore,11.135501066666668,77.34238386666667,1,0.0,0.0,0.0,0.0,0.0
327,INTERCON WOOD INDUSTRIES,"Kanjirakkad, Perumbavoor, Kerala 683543, India",Kerala,683543,2887719,1544696,169110,0,0,0,0,481500,159500,Kunnathunad,Ernakulam,10.1228594125,76.48358803125,0,160281.78,160379.88,160149.26,160166.82,160190.77
328,INTIMATE MACHINES (P) LTD.,"B St, Manvila Industrial Estate, Manvila, Thiruvananthapuram, Kerala 695583, India",Kerala,695583,30805,16206,1712,13400,0,0,0,0,0,Thiruvananthapuram,Thiruvananthapuram,8.401273206976745,77.02988891627906,0,0.0,0.0,0.0,0.0,0.0
329,J.B.C. INTERNATIONAL,"SN Junction , Kayal Road Muhamma, J988+P9V, Post, Aryakara, Alappuzha, Muhamma, Kerala 688525, India",Kerala,688525,147911,217221,223286,411215,603350,563298,692253,1006174,998514,Cherthala,Alappuzha,9.619357622727271,76.35883995454545,0,995463.84,997202.55,998436.36,997567.42,998133.28
330,J.P.ESSENTIAL EXPORTS INDIA,"S.F.No.1032/5, Madukkarai Village, Madukkarai, Taluk, Madukkarai, Tamil Nadu 641105, India",Tamil Nadu,641105,1666383,1470853,1945485,817412,323516,528840,719802,1166960,515403,Coimbatore South,Coimbatore,10.913312757142856,76.95360111428572,1,516013.39,515928.15,515902.22,515894.54,515356.99
331,J.P.P.MILLS P.LTD.,"JPP Mills, Tamil Nadu 637304, India",Tamil Nadu,637304,482861,108856,249186,58512,1547448,421194,372377,46206,277862,Tiruchengodu,Namakkal,11.412183766666669,77.84436346666666,1,275816.64,276292.79,275890.81,276557.8,277066.66
332,J.R.P.EXPORTS,"2/294, Jeeva nagar,Muthanampalayam (PO Sevanthampalayam, K Chettipalayam, Tiruppur, Tamil Nadu 641606, India",Tamil Nadu,641606,143145,139662,252599,141279,142608,46431,27230,88508,0,Tiruppur,Coimbatore,11.108007883333332,77.3994223,1,0.0,0.0,0.0,0.0,0.0
333,J.R.RUBBER INDUSTRIES,"Thadapparambu, Mulagunnathukavu, Thrissur, Killannur, Kerala 680581, India",Kerala,680581,94735,69711,96998,161021,189558,210798,191656,206275,214178,Thrissur,Thrissur,10.575689350943396,76.22444455660377,3,213438.62,214286.08,213887.72,213691.52,214236.84
334,J.S.AUTO CAST,"SF No 165/1, Sembagounden Pudur, Kuppepalayam, Tamil Nadu 641107, India",Tamil Nadu,641107,58355,562660,426106,680418,1369894,1240810,1283669,0,22808,Coimbatore South,Coimbatore,11.13275464,77.03421496,1,22782.68,22774.92,22756.47,22766.88,22755.77
335,J.S.B.KNIT FASHIONS,"39W8+9XF, KNS Subramaniam Nagar, Tiruppur, Tamil Nadu 641605, India",Tamil Nadu,641605,419,8298,2278,0,0,0,0,0,0,Kangayam,Erode,11.1207516,77.335338875,1,0.0,0.0,0.0,0.0,0.0
336,JANATHA POLYMERS,"6HWM+972, Kochalummoodu, Vettiyar, Mavelikara, Kerala 690108, India",Kerala,690108,34655,2050,51549,18,315,367,47112,48237,2850,Mavelikkara,Alappuzha,9.249809575,76.5772071375,0,2842.96,2846.48,2841.85,2842.35,2846.06
337,JANSONS BALERS,"F8PQ+R47, Municipal Stadium Ward, Vellakkinar, Alappuzha, Kerala 688011, India",Kerala,688011,1823229,1616034,1505947,1353415,1006784,1035027,1139326,1202181,1163916,Ambalapuzha,Alappuzha,9.494271704545454,76.34375952727272,0,1164849.52,1165159.94,1164775.53,1166277.02,1164803.66
338,JAY JAY MILLS(INDIA)P.LTD.,"10 KVP Layout, Alangadu, Karuvampalayam, Tiruppur, Tamil Nadu 641604, India",Tamil Nadu,641604,106525,217707,0,153315,0,91894,0,11999,35788,Tiruppur,Coimbatore,11.096187535483873,77.34985892258065,1,35858.17,35843.59,35825.88,35839.46,35833.13
339,JAYABHARATH MODERN RICE MILL,"HFVP+R9F, Vadakkencherry Bazar Rd, Amakkulam, Vadakkencherry, Kerala 678683, India",Kerala,678683,1297900,756130,755132,725430,807460,745050,753000,1064810,1006380,Alathur,Palakkad,10.533922295833332,76.49711392083334,0,1003444.57,1005483.06,1004725.84,1002797.16,1003839.16
340,JAYACHANDRAN ALLOYS P.LTD.,"Ingur - Sipcot Rd, Erode, Tamil Nadu 638056, India",Tamil Nadu,638056,3614314,711628,2410418,1318506,5167754,3550433,10753048,10039537,9838273,Perundurai,Erode,11.239570716666668,77.4940118,1,9613291.62,9840226.94,9783631.11,9818500.25,9833335.54
341,JAYAKRISHNA COIRS,"Kalavamkodam Post Office, Thankey Jn. - Saktheeshwaram, Alappuzha, Kerala 688524, India",Kerala,688524,41500,47472,0,12224,15031,62795,197411,219496,316618,Cherthala,Alappuzha,9.6891011625,76.33285069583334,0,316775.33,317068.07,317108.32,316776.15,317319.26
342,JAYAKUMARAN EXPORTS,"4/440c, Bharathi Nagar, Near Kumaran Ginning Factory,, Veerapandi, Tiruppur, Tamil Nadu 641605, India",Tamil Nadu,641605,25207,41060,90002,96856,110722,97808,73835,108020,152382,Kangayam,Erode,11.1207516,77.335338875,1,152401.68,152453.6,152291.11,152456.48,152602.69
343,JAYALAKSHMI APPARELS,"48XW+MW6, PN Rd, Raja Nagar, Poyampalayam, Tiruppur, Tamil Nadu 641603, India",Tamil Nadu,641603,11391,0,3099,0,5053,23222,29943,23104,37235,Tiruppur,Coimbatore,11.135501066666668,77.34238386666667,1,37177.62,37173.73,37175.74,37161.91,37179.01
344,JAYASREE COIR MILLS,"Thanneermukkom Alleppey, Verungumchuvad, Cherthala, Thanneermukkom, Kerala 688527, India",Kerala,688527,33430,122287,93955,132669,323700,466774,195372,183061,85578,Cherthala,Alappuzha,9.663949954545457,76.37130390909091,0,85598.19,85741.63,85614.6,85636.9,85598.91
345,JEMSONS STARCH AND DERIVATIVES ,"V7PW+VQF, Aroor gram panchayat, Kochi, Kerala 688534, India",Kerala,688534,46090,25000,18000,36000,54000,0,12058,0,0,Cherthla,Alappuzha,9.871729377142858,76.30438504,0,0.0,0.0,0.0,0.0,0.0
346,JITH TECHNOLOGIES INC.,"Thuravankad, Pullur, Kerala 680683, India",Kerala,680683,228,0,7585,0,0,0,0,0,1427,Mukundapuram,Thrissur,10.337836438512037,76.28693993413566,0,1425.21,1427.5,1425.64,1426.87,1428.11
347,JMS EXPORTS,"Block Office, Road, Kavilpad, Palakkad, Pirayiri, Kerala 678006, India",Kerala,678006,122606,125007,77995,184248,214659,94995,139431,152918,106880,Palakkad,Palakkad,10.776043,76.63281468461538,1,107251.12,107097.19,107182.85,107133.51,107185.06
348,JOSCO RUBBERS,"Fire Station, 8/50, opp. Beach Road, Moonalingal, Kozhikode, Kerala 673032, India",Kerala,673032,42557,35394,6097,2570,0,0,0,0,0,Kozhikode,Kozhikode,11.255940345454546,75.77301907272728,3,0.0,0.0,0.0,0.0,0.0
349,JOSE TRADERS,"9/1153, Big Bazaar Rd, Big Bazaar, Mananchira, Kozhikode, Kerala 673001, India",Kerala,673001,16100,18300,90000,90000,22010,75000,26125,0,17500,Kozhikode,Kozhikode,11.250885012068968,75.78104223908046,3,17462.46,17467.87,17467.0,17482.08,17474.73
350,JOSH RUBBERS,"Industrial development Plot, Poovanthuruthu, Kottayam, Kerala 686012, India",Kerala,686012,24320,44800,0,0,0,0,0,0,0,Kottayam,Kottayam,9.54856711111111,76.52230786666667,0,0.0,0.0,0.0,0.0,0.0
351,JR EXPORT INDUSTRIES,"CCSB Rd, Kodiveedu, Alappuzha, Kerala 688001, India",Kerala,688001,140718,154254,110080,257481,150239,71067,168270,67006,24094,Ambalapuzha,Alappuzha,9.49638391904762,76.33209264761905,0,24072.46,24091.36,24087.23,24086.85,24100.58
352,K.K.R.AGRO MILLS P.LTD.,"1008'13. 7627'43.0""E, 3rd Cross Road, Vallom, Ezhattumugham, Chelamattom part, Kerala 683550, India",Kerala,683550,8635429,9888431,9083661,9597018,6839727,6335090,4600863,883185,888760,Kunnathunad,Ernakulam,10.156458604347826,76.44930727391304,0,1033928.51,922760.48,909514.11,909688.51,901020.76
353,K.K.R.FOOD PRODUCTS,"5F22+6XR, opposite Reliance Petrol Pump, P.O, Okkal, Kalady, Ernakulam, Kerala 683550, India",Kerala,683550,564102,180933,0,69465,12900,0,0,0,0,Kunnathunad,Ernakulam,10.156458604347826,76.44930727391304,0,0.0,0.0,0.0,0.0,0.0
354,K.M.FISHERIES,"6548+85F, Azhikode  Chamakkala Rd, Azhikode, Kerala 680666, India",Kerala,680666,1202044,1494627,1932615,2270700,2591220,1342383,1456850,2346804,1784218,Kodungallur,Thrissur,10.219672676363636,76.17212202363636,0,1795097.87,1785283.42,1786767.25,1785319.15,1782950.0
355,K.M.KNITWEAR,"14-D, E, F LAKSHMI NAGAR, CITY GARDEN, 1st St, Laxmi Nagar, Tiruppur, Tamil Nadu 641602, India",Tamil Nadu,641602,957,50985,35669,727,10400,1182,26740,35453,31600,Tiruppur,Coimbatore,11.121108205263155,77.34359659473684,1,31619.85,31621.34,31596.59,31598.49,31596.2
356,K.M.N VAIDYASALA,"Kodugallur, 6692+MMF, NH17, Kunnumpuram, Methala, Kodungallur, Kerala 680664, India",Kerala,680664,180,250,0,0,0,0,0,0,0,Kodungallur,Thrissur,10.226724503669724,76.19748105045872,0,0.0,0.0,0.0,0.0,0.0
357,K.P.R. KNITS,"397R+P3M, Kovil Vazhli - Muthanapalayam Road, Muthanampalayam, Tiruppur, Tamil Nadu 641606, India",Tamil Nadu,641606,1467,4887,339,7659,0,7584,54423,134862,104894,Tiruppur,Coimbatore,11.108007883333332,77.3994223,1,104957.06,104951.37,104961.86,105086.4,104968.91
358,K.P.R.GARMENTS,"56FP+864, Sembianallur, Avinashi, Tamil Nadu 641654, India",Tamil Nadu,641654,7854,0,0,0,0,0,0,0,0,Avinashi,Coimbatore,11.17420899375,77.233283075,1,0.0,0.0,0.0,0.0,0.0
359,K.R.K.EXPORTS ,"14 A PTR NAGAR, Pudur Vandipathai Rd, Ramaond Reserve Line, Athikulam, Naganakulam, Tamil Nadu 625007, India",Tamil Nadu,625007,31182,83798,198169,575470,126025,157191,131846,31582,34454,Naganakulam,Madurai,9.94700963076923,78.14539705384615,1,34550.59,34539.88,34516.08,34528.88,34533.52
360,K.S.M EXPORTS,"No 122/13, Bajanai Kovil Street Post, Konavattam, Kel Moonavur, Vellore, Tamil Nadu 632013, India",Tamil Nadu,632013,6683,0,0,0,0,0,0,0,0,Kel Moonavur,Vellore,12.922307325,79.11259575,2,0.0,0.0,0.0,0.0,0.0
361,K.V.P. ENTERPRISES,"15, Krishna Nagar, (Opp. Jaya Arts College), Thiruninravur, Chennai, Tamil Nadu 602024, India",Tamil Nadu,602024,176760,138231,164685,53100,0,0,47000,0,0,Thiruninravur,Tiruvallur,13.126008047058823,80.01442765294118,2,0.0,0.0,0.0,0.0,0.0
362,KAFAT TRADING COMPANY,"49, 13-4, Vellalar Colony E, Simon Nagar, Nagercoil, Tamil Nadu 629001, India",Tamil Nadu,629001,9000,8000,0,0,0,0,0,0,0,Agastheeswaram,Kanyakumari,8.18289031764706,77.43046253333334,0,0.0,0.0,0.0,0.0,0.0
363,KAILAS CASHEW EXPORTS,"XPM5+V56, Pezhookonam, Cheerankavu, Kollam, Kerala 691505, India",Kerala,691505,2077328,1693719,1046101,0,0,0,0,0,0,Kottarakkara,Kollam,8.989406912745098,76.7210242754902,0,0.0,0.0,0.0,0.0,0.0
364,KAIRALI EXPORTS,"S N Lace Building First floor, Sabari super Bazar, Balaramapuram Main Rd, Pazhayakadalane, Balaramapuram, Kerala 695501, India",Kerala,695501,214600,116919,189821,106874,162000,263626,165000,123885,0,Neyyattinkara,Thiruvananthapuram,8.430515920588235,77.0233470007353,0,0.0,0.0,0.0,0.0,0.0
365,KAIRALI GRANITES,"National Highway Bye Pass, Kannadi Kadu Service Rd, Adjacent to Hotel Wyte Fort, Jaya Nagar, Maradu, Kochi, Kerala 682304, India",Kerala,682304,91500,0,0,0,0,0,3512,0,0,Ernakulam,Ernakulam,9.938877706666666,76.32558967666667,0,0.0,0.0,0.0,0.0,0.0
366,KAIRALI HANDLOOMS,"FWPR+WPC, Temple Rd, Sreekandeswaram, Nalumukku, Pazhavangadi, Thiruvananthapuram, Kerala 695024, India",Kerala,695024,115926,115244,118094,105435,45193,52531,54008,62990,20106,Thiruvananthapuram,Thiruvananthapuram,8.489089853731343,76.92985226865672,0,20098.99,20117.54,20103.75,20079.46,20083.5
367,KAISONS RUBBERS,"Kaipattoor, Mekalady, Kalady, Kerala 683574, India",Kerala,683574,2704046,3363651,2995149,2383377,2781048,2310279,3388887,2560743,2956370,Aluva,Ernakulam,10.182817160958905,76.45845344931507,0,2967830.6,2955206.0,2955483.12,2953505.94,2949346.71
368,KALAN ARYAVAIDYA SALA,"Nellayi, Ponkothra, Kerala 680305, India",Kerala,680305,528,0,0,0,0,0,0,0,0,Mukundapuram,Thrissur,10.382905518181818,76.26554509090909,0,0.0,0.0,0.0,0.0,0.0
369,KALAN PHARMACEUTICALS,"Anandapuram Nellayi Rd, Ponkothra, Kerala 680305, India",Kerala,680305,13993,13031,5641,0,0,9682,11546,5076,4550,Mukundapuram,Thrissur,10.382905518181818,76.26554509090909,0,4551.96,4554.33,4548.62,4550.11,4548.56
370,KALANS PRODUCTS,"97WG+2XH, Anandapuram Nellayi Rd, Ponkothra, Kerala 680305, India",Kerala,680305,1347,6624,6700,0,0,9100,8879,0,40,Mukundapuram,Thrissur,10.382905518181818,76.26554509090909,0,40.01,39.3,39.46,39.09,38.57
371,KALATHIL EXPORTS&IMPORTS,"Door No. 39/1607, Maria Complex, Kannamthottathil Road, Valanjambalam, Eroor Rd, Kappattikavu, Eroor North, Eroor, Kochi, Kerala 682306, India",Kerala,682306,77705,0,0,0,0,0,0,0,0,Ernakulam,Ernakulam,9.968037122972971,76.33532464099099,0,0.0,0.0,0.0,0.0,0.0
372,KALPAKA EXPORTS,"C942+67H, Neerkunnam, Vandanam, Kerala 688005, India",Kerala,688005,378399,294032,141736,67000,105148,0,0,0,0,Ambalappuzha,Alappuzha,9.40768399,76.351707025,0,0.0,0.0,0.0,0.0,0.0
373,KALYAN ENGINEERING CORPN.,"No. 9/196 A Elathur, pooladikunnu, Kozhikode, Kerala 673303, India",Kerala,673303,13520,800,0,250,6560,800,2835,2168,12201,Kozhikode,Kozhikode,11.35162040625,75.753192625,3,12209.63,12207.29,12210.65,12206.45,12209.56
374,KALYAN FOODS & SPICES (I)P.LTD,"Pound Rd, Puthur, Thrissur, Kerala 680014, India",Kerala,680014,70107,105651,25850,30030,57949,18536,38784,37084,26400,Thrissur,Thrissur,10.488860822115385,76.28381912307692,0,26369.89,26364.35,26379.79,26361.53,26397.25
375,KALYAN SILKS TRICHUR P.LTD.,"Thrissur, Kerala, India",Kerala,688534,771,0,0,51544,37271,37548,80766,74978,73173,Cherthla,Alappuzha,9.871729377142858,76.30438504,0,73066.48,73049.96,73062.74,73058.49,73079.8
376,KANISKA GARMENTS,"No. 1/9 A, Kullegoundenpudur, Mangalam Rd, Iduvampalayam, Tiruppur, Tamil Nadu 641687, India",Tamil Nadu,641687,20320,11762,48117,12697,3318,8796,8097,76423,155545,Tiruppur,Coimbatore,11.0980518625,77.309765225,1,155431.0,155573.81,155560.93,155370.35,155390.27
377,KANNAN DEVAN HILLS PLANTATIONS,"Kannan Devan Hills, Kerala, India",Kerala,686012,2567669,2264190,2337803,2349653,2534903,1987961,2005218,1681742,1811474,Kottayam,Kottayam,9.54856711111111,76.52230786666667,0,1823794.23,1824479.2,1822139.83,1822074.25,1816532.2
378,KARPAGAM GARMENTS,"2, Palladam Main Rd, AB Nagar, Veerapandi, Tiruppur, Tamil Nadu 641605, India",Tamil Nadu,641605,35853,0,9941,0,59847,0,8777,30605,10721,Kangayam,Erode,11.1207516,77.335338875,1,10730.78,10729.42,10711.65,10719.8,10721.41
379,KARTHIK EXIM,"2nd Floor, 13, 1st Cross St, Pankajam Colony, Kamarajar Salai, Madurai, Tamil Nadu 625009, India",Tamil Nadu,625009,55600,0,0,0,0,1656,0,0,0,Madurai North,Madurai,10.016214304166668,78.16064260416667,1,0.0,0.0,0.0,0.0,0.0
380,KARTHIK EXPORTS,"No:9, 2nd Street, Kongu Main Rd, Tiruppur, Tamil Nadu 641607, India",Tamil Nadu,641607,19000,0,0,0,0,0,0,0,0,Tirupur,Coimbatore,11.1214821,77.36035476666666,1,0.0,0.0,0.0,0.0,0.0
381,KARTHIKAI TEXTILE MILLS,"No-9, Senkunthapuram, Karuvam Palyam, Mangalam Road, Karuvam Palyam, Sengunthapuram, Karuvampalayam, Tiruppur, Tamil Nadu 641604, India",Tamil Nadu,641604,56977,158080,103564,104891,221205,149168,193454,296909,228885,Tiruppur,Coimbatore,11.096187535483873,77.34985892258065,1,229924.87,229904.64,230022.11,229114.35,229146.96
382,KASIYANANTHA INDUSTRIES,"No B, 12, Kodungaiyur (East), Sidco Industrial Estate, Kodungaiyur, Chennai, Tamil Nadu 600118, India",Tamil Nadu,600118,5428,6874,1335,2977,0,0,0,2078,0,Chennai,Chennai,13.124858745833333,80.2454366125,2,0.0,0.0,0.0,0.0,0.0
383,KASS EXPORTS  INDIA(P)LTD.,"GWGH+5MG, Medical College Ulloor Rd, Opposite Medical College, P T Chacko Nagar, Ulloor, Thiruvananthapuram, Kerala 695011, India",Kerala,695011,33110,31934,17348,14690,13976,22987,0,0,0,Thiruvananthapuram,Thiruvananthapuram,8.528033914838709,76.91944505387096,0,0.0,0.0,0.0,0.0,0.0
384,KAVIN TEXTILES,"Sf No. 245, Opp. Kasipalayam Road, Nallur, Tiruppur, Tamil Nadu 641606, India",Tamil Nadu,641606,27511,27423,26585,20246,54803,164584,38740,0,95,Tiruppur,Coimbatore,11.108007883333332,77.3994223,1,97.96,101.17,98.31,98.23,99.75
385,KAY CEE CORPORATION,"Basin Rd, Marine Drive, Ernakulam, Kochi, Kerala 682031, India",Kerala,682031,26000,0,0,0,0,0,5375,0,2649,Ernakulam,Ernakulam,9.99692354,76.27468644,0,2647.55,2646.74,2647.49,2646.81,2648.19
386,KAY GE CORPORATION,"S.F. No.428/1,Eran Thottam, Sathy Road, Ganapathypudur, Sri Laxmi Nagar, Ganapathy, Coimbatore, Tamil Nadu 641006, India",Tamil Nadu,641006,9174,1068,5955,5605,5231,0,1385,0,0,Coimbatore North,Coimbatore,11.059443936363635,76.99888995,1,0.0,0.0,0.0,0.0,0.0
387,KAY KAY EXPORTS,"Chanthapallam, Cheriakadavu, Kannamaly, Kochi, Kerala 682008, India",Kerala,682008,1215732,954829,684578,1238760,1630071,1042113,1758820,1509776,1149296,Kochi,Ernakulam,9.869597658064515,76.26596289354838,0,1151550.53,1154548.74,1153552.8,1153392.65,1153649.11
